[{"name": "클린하우스", "address": "제주특별자치도 제주시 한림읍 한림리 1328-62", "lat": 33.4159, "lng": 126.26255}, {"name": "클린하우스", "address": "제주특별자치도 제주시 한림읍 한림리 1531-4", "lat": 33.41095, "lng": 126.26376}, {"name": "클린하우스", "address": "제주특별자치도 제주시 한림읍 한림리 1450-2", "lat": 33.41234, "lng": 126.26424}, {"name": "클린하우스", "address": "제주특별자치도 제주시 한림읍 귀덕리 3008", "lat": 33.44122537, "lng": 126.2902645}, {"name": "클린하우스", "address": "제주특별자치도 제주시 한림읍 대림리 1268-2", "lat": 33.42708197, "lng": 126.2795148}, {"name": "클린하우스", "address": " 제주특별자치도 제주시 한림읍 명랑로 16", "lat": 33.41455, "lng": 126.26678}, {"name": "클린하우스", "address": "제주특별자치도 제주시 한림읍 동명리 1540-11", "lat": 33.40563, "lng": 126.2689}, {"name": "클린하우스", "address": " 제주특별자치도 제주시 한림읍 한림남1길 29", "lat": 33.41231, "lng": 126.2677}, {"name": "클린하우스", "address": "제주특별자치도 제주시 한림읍 금악리 2234-1", "lat": 33.3614839, "lng": 126.2956548}, {"name": "클린하우스", "address": "제주특별자치도 제주시 한림읍 대림리 1814", "lat": 33.41755, "lng": 126.26513}, {"name": "클린하우스", "address": "제주특별자치도 제주시 한림읍 금능9길 10-1", "lat": 33.38931086, "lng": 126.2299346}, {"name": "클린하우스", "address": "제주특별자치도 제주시 한림읍 귀덕6길 200", "lat": 33.42826139, "lng": 126.2891102}, {"name": "클린하우스", "address": "제주특별자치도 제주시 한림읍 월림리 291-8", "lat": 33.3486052, "lng": 126.256332}, {"name": "클린하우스", "address": "제주특별자치도 제주시 한림읍 귀덕리 4070", "lat": 33.44115752, "lng": 126.2791867}, {"name": "클린하우스", "address": "제주특별자치도 제주시 한림읍 귀덕리 228-3", "lat": 33.42128861, "lng": 126.2981857}, {"name": "클린하우스", "address": "제주특별자치도 제주시 한림읍 한수풀로 337", "lat": 33.41906185, "lng": 126.2961867}, {"name": "클린하우스", "address": "제주특별자치도 제주시 한림읍 수원리 960-6", "lat": 33.4281, "lng": 126.26392}, {"name": "클린하우스", "address": "제주특별자치도 제주시 한림읍 한림리 915-9", "lat": 33.4089, "lng": 126.26624}, {"name": "클린하우스", "address": "제주특별자치도 제주시 한림읍 한림로 741", "lat": 33.42088, "lng": 126.26392}, {"name": "클린하우스", "address": "제주특별자치도 제주시 한림읍 상명리 211-12", "lat": 33.35192431, "lng": 126.277411}, {"name": "클린하우스", "address": "제주특별자치도 제주시 한림읍 한수리 920-14", "lat": 33.42255, "lng": 126.26256}, {"name": "클린하우스", "address": "제주특별자치도 제주시 한림읍 한림리 680-1", "lat": 33.41095, "lng": 126.27139}, {"name": "클린하우스", "address": "제주특별자치도 제주시 한림읍 한수풀로 177", "lat": 33.42293467, "lng": 126.2806697}, {"name": "클린하우스", "address": "제주특별자치도 제주시 한림읍 대림리 1468-1", "lat": 33.42453399, "lng": 126.2775964}, {"name": "클린하우스", "address": "제주특별자치도 제주시 한림읍 중산간서로 4956", "lat": 33.40763949, "lng": 126.2938171}, {"name": "클린하우스", "address": "제주특별자치도 제주시 한림읍 한림리 551-2", "lat": 33.41516, "lng": 126.27012}, {"name": "클린하우스", "address": "제주특별자치도 제주시 한림읍 동명리 175-4", "lat": 33.38551128, "lng": 126.2836039}, {"name": "클린하우스", "address": "제주특별자치도 제주시 한림읍 명월리 1191", "lat": 33.37592653, "lng": 126.277424}, {"name": "클린하우스", "address": "제주특별자치도 제주시 한림읍 명월리 1777-5", "lat": 33.38658286, "lng": 126.267224}, {"name": "클린하우스", "address": "제주특별자치도 제주시 한림읍 사가동길 18", "lat": 33.4156, "lng": 126.26334}, {"name": "클린하우스", "address": "제주특별자치도 제주시 한림읍 중산간서로 4292", "lat": 33.3517399, "lng": 126.2944567}, {"name": "클린하우스", "address": "제주특별자치도 제주시 한림읍 귀덕리 1893-1", "lat": 33.42780328, "lng": 126.2925606}, {"name": "클린하우스", "address": "제주특별자치도 제주시 한림읍 상명리 2361", "lat": 33.35782229, "lng": 126.2726465}, {"name": "클린하우스", "address": "제주특별자치도 제주시 한림읍 대림로 55", "lat": 33.42147138, "lng": 126.2823127}, {"name": "클린하우스", "address": "제주특별자치도 제주시 한림읍 금악리 2048-2", "lat": 33.35787415, "lng": 126.2901096}, {"name": "클린하우스", "address": "제주특별자치도 제주시 한림읍 옹포리 323-3", "lat": 33.4060486, "lng": 126.2566871}, {"name": "클린하우스", "address": "제주특별자치도 제주시 한림읍 협재리 2514-19", "lat": 33.39272122, "lng": 126.2408757}, {"name": "클린하우스", "address": "제주특별자치도 제주시 한림읍 한림리 1494", "lat": 33.40987, "lng": 126.26087}, {"name": "클린하우스", "address": "제주특별자치도 제주시 한림읍 협재리 2447-45", "lat": 33.3948585, "lng": 126.2411629}, {"name": "클린하우스", "address": "제주특별자치도 제주시 한림읍 협재리 2447-11", "lat": 33.39312363, "lng": 126.2398812}, {"name": "클린하우스", "address": "제주특별자치도 제주시 한림읍 금능리 1268-3", "lat": 33.38627257, "lng": 126.229864}, {"name": "클린하우스", "address": "제주특별자치도 제주시 한림읍 금능7길 14-8", "lat": 33.38948258, "lng": 126.228873}, {"name": "클린하우스", "address": "제주특별자치도 제주시 한림읍 월령1길 11", "lat": 33.37600811, "lng": 126.2157194}, {"name": "클린하우스", "address": "제주특별자치도 제주시 한림읍 일주서로 5538", "lat": 33.42147712, "lng": 126.2782304}, {"name": "클린하우스", "address": "제주특별자치도 제주시 한림읍 한림리 1388-3", "lat": 33.41264, "lng": 126.26241}, {"name": "클린하우스", "address": "제주특별자치도 제주시 한림읍 월각로 6", "lat": 33.4169002, "lng": 126.29679}, {"name": "클린하우스", "address": "제주특별자치도 제주시 한림읍 대림리 2019-13", "lat": 33.41887, "lng": 126.26324}, {"name": "클린하우스", "address": "제주특별자치도 제주시 한림읍 귀덕리 3127-1", "lat": 33.4424186, "lng": 126.2833054}, {"name": "클린하우스", "address": "제주특별자치도 제주시 한림읍 수원리 26-5", "lat": 33.42737, "lng": 126.27064}, {"name": "클린하우스", "address": "제주특별자치도 제주시 한림읍 협재리 1937-3", "lat": 33.39602968, "lng": 126.2476802}, {"name": "클린하우스", "address": "제주특별자치도 제주시 한림읍 옹포리 618-3", "lat": 33.40118175, "lng": 126.2525667}, {"name": "클린하우스", "address": "제주특별자치도 제주시 한림읍 귀덕리 2255-6", "lat": 33.41803547, "lng": 126.2913127}, {"name": "클린하우스", "address": "제주특별자치도 제주시 한림읍 귀덕리 976-8", "lat": 33.44559431, "lng": 126.2945597}, {"name": "클린하우스", "address": "제주특별자치도 제주시 한림읍 한수리 920-12", "lat": 33.42268, "lng": 126.2634}, {"name": "클린하우스", "address": "제주특별자치도 제주시 한림읍 고도물길 10", "lat": 33.41063465, "lng": 126.2587179}, {"name": "클린하우스", "address": "제주특별자치도 제주시 한림읍 명월리 2089-5", "lat": 33.39637693, "lng": 126.2602588}, {"name": "클린하우스", "address": "제주특별자치도 제주시 한림읍 한수풀로4길 10", "lat": 33.41973089, "lng": 126.275124}, {"name": "클린하우스", "address": "제주특별자치도 제주시 한림읍 한림해안로 538", "lat": 33.43700285, "lng": 126.2750181}, {"name": "클린하우스", "address": "제주특별자치도 제주시 한림읍 한림해안로 485", "lat": 33.43587066, "lng": 126.2722948}, {"name": "클린하우스", "address": "제주특별자치도 제주시 한림읍 한수3길 13", "lat": 33.42, "lng": 126.26284}, {"name": "클린하우스", "address": "제주특별자치도 제주시 한림읍 금능리 1634-1", "lat": 33.38597168, "lng": 126.2236311}, {"name": "클린하우스", "address": "제주특별자치도 제주시 한림읍 옹포리 500-16", "lat": 33.40425638, "lng": 126.2517285}, {"name": "클린하우스", "address": "제주특별자치도 제주시 한림읍 월령리 317-1", "lat": 33.37834432, "lng": 126.2162617}, {"name": "클린하우스", "address": "제주특별자치도 제주시 한림읍 동명리 1601-2", "lat": 33.40848, "lng": 126.26381}, {"name": "클린하우스", "address": "제주특별자치도 제주시 한림읍 귀덕리 1644-12", "lat": 33.43375395, "lng": 126.296163}, {"name": "클린하우스", "address": "제주특별자치도 제주시 한림읍 귀덕리 4129-4", "lat": 33.44183904, "lng": 126.2778064}, {"name": "클린하우스", "address": "제주특별자치도 제주시 한림읍 한림리 65-5", "lat": 33.41320502, "lng": 126.2817237}, {"name": "클린하우스", "address": "제주특별자치도 제주시 한림읍 동명리 1324-2", "lat": 33.39730539, "lng": 126.265802}, {"name": "클린하우스", "address": "제주특별자치도 제주시 한림읍 월령안길 27", "lat": 33.37622532, "lng": 126.2142872}, {"name": "클린하우스", "address": "제주특별자치도 제주시 한림읍 대림리 1882-5", "lat": 33.41936, "lng": 126.26755}, {"name": "클린하우스", "address": "제주특별자치도 제주시 한림읍 수원리 713-8", "lat": 33.4262, "lng": 126.26708}, {"name": "클린하우스", "address": "제주특별자치도 제주시 한림읍 대림리 1776-1", "lat": 33.41722, "lng": 126.26811}, {"name": "클린하우스", "address": "제주특별자치도 제주시 한림읍 동명리 664-15", "lat": 33.40222698, "lng": 126.2706984}, {"name": "클린하우스", "address": "제주특별자치도 제주시 한림읍 한수리 845-2", "lat": 33.42198, "lng": 126.26445}, {"name": "클린하우스", "address": "제주특별자치도 제주시 한림읍 대림리 676-5", "lat": 33.42440153, "lng": 126.2852241}, {"name": "클린하우스", "address": "제주특별자치도 제주시 한림읍 대림리 1901-10", "lat": 33.42012, "lng": 126.26563}, {"name": "클린하우스", "address": "제주특별자치도 제주시 한림읍 한림리 1421-2", "lat": 33.41441, "lng": 126.26414}, {"name": "클린하우스", "address": "제주특별자치도 제주시 한림읍 한림리 1213-2", "lat": 33.41424, "lng": 126.26462}, {"name": "클린하우스", "address": "제주특별자치도 제주시 한림읍 명랑로 17", "lat": 33.41497, "lng": 126.26708}, {"name": "클린하우스", "address": "제주특별자치도 제주시 한림읍 한림리 175-10", "lat": 33.40878415, "lng": 126.2774428}, {"name": "클린하우스", "address": "제주특별자치도 제주시 한림읍 금악리 109-7", "lat": 33.34346464, "lng": 126.3231036}, {"name": "클린하우스", "address": "제주특별자치도 제주시 한림읍 상명리 1111-2", "lat": 33.35939104, "lng": 126.2708314}, {"name": "클린하우스", "address": "제주특별자치도 제주시 한림읍 상명리 1758-1", "lat": 33.36338339, "lng": 126.2687111}, {"name": "클린하우스", "address": "제주특별자치도 제주시 한림읍 한림로 381", "lat": 33.39665126, "lng": 126.2436753}, {"name": "클린하우스", "address": "제주특별자치도 제주시 한림읍 금능농공길 50", "lat": 33.35949367, "lng": 126.243437}, {"name": "클린하우스", "address": "제주특별자치도 제주시 한림읍 금능농공길 64", "lat": 33.3545651, "lng": 126.2428517}, {"name": "클린하우스", "address": "제주특별자치도 제주시 한림읍 한림리 1582-7", "lat": 33.41169, "lng": 126.26434}, {"name": "클린하우스", "address": "제주특별자치도 제주시 한림읍 금악리 2033-8", "lat": 33.3571518, "lng": 126.2983283}, {"name": "클린하우스", "address": "제주특별자치도 제주시 한림읍 한림중앙로 71-9", "lat": 33.40975, "lng": 126.2684}, {"name": "클린하우스", "address": " 제주특별자치도 제주시 애월읍 하귀2리 1436-20 ", "lat": 33.48227844, "lng": 126.4056662}, {"name": "클린하우스", "address": " 제주특별자치도 제주시 애월읍 광령중길 85", "lat": 33.45264359, "lng": 126.4345993}, {"name": "클린하우스", "address": " 제주특별자치도 제주시 애월읍 고성리 133-2", "lat": 33.4348898, "lng": 126.4256152}, {"name": "클린하우스", "address": " 제주특별자치도 제주시 애월읍 금성2길 64", "lat": 33.43921, "lng": 126.30154}, {"name": "클린하우스", "address": " 제주특별자치도 제주시 애월읍 봉성리 3080-9", "lat": 33.41478, "lng": 126.31468}, {"name": "클린하우스", "address": " 제주특별자치도 제주시 애월읍 어음리 3642-1", "lat": 33.41682, "lng": 126.33102}, {"name": "클린하우스", "address": " 제주특별자치도 제주시 애월읍 어음10길 33", "lat": 33.40101632, "lng": 126.3369825}, {"name": "클린하우스", "address": " 제주특별자치도 제주시 애월읍 납읍리 1753-4", "lat": 33.43967, "lng": 126.3295}, {"name": "클린하우스", "address": " 제주특별자치도 제주시 애월읍 하귀12길 22", "lat": 33.48611616, "lng": 126.4086086}, {"name": "클린하우스", "address": " 제주특별자치도 제주시 애월읍 하귀미수동길 30", "lat": 33.48055976, "lng": 126.4009282}, {"name": "클린하우스", "address": " 제주특별자치도 제주시 애월읍 광령평화2길 170-2", "lat": 33.4305616, "lng": 126.4337706}, {"name": "클린하우스", "address": " 제주특별자치도 제주시 애월읍 신용로 193", "lat": 33.45453, "lng": 126.37025}, {"name": "클린하우스", "address": " 제주특별자치도 제주시 애월읍 신엄8길 10", "lat": 33.47054, "lng": 126.36784}, {"name": "클린하우스", "address": " 제주특별자치도 제주시 애월읍 구엄리 1103-1", "lat": 33.47664028, "lng": 126.3769654}, {"name": "클린하우스", "address": " 제주특별자치도 제주시 애월읍 신엄리1728-1", "lat": 33.46193, "lng": 126.36847}, {"name": "클린하우스", "address": " 제주특별자치도 제주시 애월읍 광령리 1276-2", "lat": 33.46082857, "lng": 126.4399911}, {"name": "클린하우스", "address": " 제주특별자치도 제주시 애월읍 광성로 277", "lat": 33.46069676, "lng": 126.4362719}, {"name": "클린하우스", "address": " 제주특별자치도 제주시 애월읍 하광로 473", "lat": 33.4490179, "lng": 126.4295123}, {"name": "클린하우스", "address": " 제주특별자치도 제주시 애월읍 광령자종길 1", "lat": 33.46394, "lng": 126.42308}, {"name": "클린하우스", "address": " 제주특별자치도 제주시 애월읍 고성6길 4", "lat": 33.45825, "lng": 126.41521}, {"name": "클린하우스", "address": " 제주특별자치도 제주시 애월읍 고성리 133-2", "lat": 33.4348898, "lng": 126.4256152}, {"name": "클린하우스", "address": " 제주특별자치도 제주시 애월읍 유수암리 1898-3", "lat": 33.4412157, "lng": 126.4024711}, {"name": "클린하우스", "address": " 제주특별자치도 제주시 애월읍 장전리 453-2", "lat": 33.4508051, "lng": 126.3883057}, {"name": "클린하우스", "address": " 제주특별자치도 제주시 애월읍 장전리 1638-3", "lat": 33.44139492, "lng": 126.3791351}, {"name": "클린하우스", "address": " 제주특별자치도 제주시 애월읍 수산리 1914-1", "lat": 33.46992, "lng": 126.38428}, {"name": "클린하우스", "address": " 제주특별자치도 제주시 애월읍 하소로 163", "lat": 33.46678, "lng": 126.39373}, {"name": "클린하우스", "address": " 제주특별자치도 제주시 애월읍 예원로 103", "lat": 33.46061, "lng": 126.39802}, {"name": "클린하우스", "address": " 제주특별자치도 제주시 애월읍 엄수로 165", "lat": 33.46875, "lng": 126.38943}, {"name": "클린하우스", "address": " 제주특별자치도 제주시 애월읍 상귀리 113", "lat": 33.47311446, "lng": 126.4091617}, {"name": "클린하우스", "address": " 제주특별자치도 제주시 애월읍 구엄4길 48", "lat": 33.48372301, "lng": 126.3774129}, {"name": "클린하우스", "address": " 제주특별자치도 제주시 애월읍 하귀1리 316-2", "lat": 33.48902446, "lng": 126.415633}, {"name": "클린하우스", "address": " 제주특별자치도 제주시 애월읍 애납로 161", "lat": 33.43991, "lng": 126.32805}, {"name": "클린하우스", "address": " 제주특별자치도 제주시 애월읍 하귀12길 36", "lat": 33.48723538, "lng": 126.4088126}, {"name": "클린하우스", "address": " 제주특별자치도 제주시 애월읍 하귀10길 17", "lat": 33.48688336, "lng": 126.4102355}, {"name": "클린하우스", "address": " 제주특별자치도 제주시 애월읍 하귀2리 2988-2", "lat": 33.47685048, "lng": 126.3917722}, {"name": "클린하우스", "address": " 제주특별자치도 제주시 애월읍 하귀로 72", "lat": 33.48119484, "lng": 126.4046194}, {"name": "클린하우스", "address": " 제주특별자치도 제주시 애월읍 하귀2리 1926-7", "lat": 33.47957538, "lng": 126.4004947}, {"name": "클린하우스", "address": " 제주특별자치도 제주시 애월읍 하귀로23길 17-1", "lat": 33.47916609, "lng": 126.4032907}, {"name": "클린하우스", "address": " 제주특별자치도 제주시 애월읍 가문동길 50", "lat": 33.48695456, "lng": 126.3922731}, {"name": "클린하우스", "address": " 제주특별자치도 제주시 애월읍 신엄9길 54", "lat": 33.47590308, "lng": 126.36651}, {"name": "클린하우스", "address": " 제주특별자치도 제주시 애월읍 신엄9길 22-2 ", "lat": 33.47367, "lng": 126.36812}, {"name": "클린하우스", "address": " 제주특별자치도 제주시 애월읍 납읍리 1622-4", "lat": 33.43853, "lng": 126.33179}, {"name": "클린하우스", "address": " 제주특별자치도 제주시 애월읍 신엄안3길 46 ", "lat": 33.47386175, "lng": 126.362244}, {"name": "클린하우스", "address": " 제주특별자치도 제주시 애월읍 신엄리 2871", "lat": 33.47672171, "lng": 126.355671}, {"name": "클린하우스", "address": " 제주특별자치도 제주시 애월읍 유수암리 1042-16", "lat": 33.4231676, "lng": 126.4054242}, {"name": "클린하우스", "address": " 제주특별자치도 제주시 애월읍 납읍리 2420-2", "lat": 33.43706, "lng": 126.32801}, {"name": "클린하우스", "address": " 제주특별자치도 제주시 애월읍 하귀1리 123-10", "lat": 33.48620458, "lng": 126.415939}, {"name": "클린하우스", "address": " 제주특별자치도 제주시 애월읍 구엄길 9", "lat": 33.47535208, "lng": 126.3759087}, {"name": "클린하우스", "address": " 제주특별자치도 제주시 애월읍 봉성리 3816-4", "lat": 33.42155, "lng": 126.31268}, {"name": "클린하우스", "address": " 제주특별자치도 제주시 애월읍 고성3길 10 ", "lat": 33.45888, "lng": 126.41415}, {"name": "클린하우스", "address": " 제주특별자치도 제주시 애월읍 봉성리 4188-1", "lat": 33.41379, "lng": 126.31098}, {"name": "클린하우스", "address": " 제주특별자치도 제주시 애월읍 일주서로 7219-1", "lat": 33.489712, "lng": 126.4192669}, {"name": "클린하우스", "address": " 제주특별자치도 제주시 애월읍 하귀1리 146-1", "lat": 33.48695445, "lng": 126.418353}, {"name": "클린하우스", "address": " 제주특별자치도 제주시 애월읍 하귀1리 156-5", "lat": 33.48436191, "lng": 126.4167483}, {"name": "클린하우스", "address": " 제주특별자치도 제주시 애월읍 하소로 136", "lat": 33.46962, "lng": 126.39455}, {"name": "클린하우스", "address": " 제주특별자치도 제주시 애월읍 광령7길 13 ", "lat": 33.46216205, "lng": 126.4383221}, {"name": "클린하우스", "address": " 제주특별자치도 제주시 애월읍 하귀1리 238-4 ", "lat": 33.48140208, "lng": 126.413675}, {"name": "클린하우스", "address": " 제주특별자치도 제주시 애월읍 봉성리 3248-2", "lat": 33.41743, "lng": 126.31715}, {"name": "클린하우스", "address": " 제주특별자치도 제주시 애월읍 하귀5길 2-1", "lat": 33.48740273, "lng": 126.4163358}, {"name": "클린하우스", "address": " 제주특별자치도 제주시 애월읍 구엄리 900-3", "lat": 33.47478, "lng": 126.37808}, {"name": "클린하우스", "address": " 제주특별자치도 제주시 애월읍 어음10길 7", "lat": 33.4027185, "lng": 126.3378493}, {"name": "클린하우스", "address": " 제주특별자치도 제주시 애월읍 광령8길 33", "lat": 33.45802952, "lng": 126.4398974}, {"name": "클린하우스", "address": " 제주특별자치도 제주시 애월읍 봉성리 3375-1", "lat": 33.42053, "lng": 126.3132}, {"name": "클린하우스", "address": " 제주특별자치도 제주시 애월읍 신엄리 755-4", "lat": 33.47289, "lng": 126.37414}, {"name": "클린하우스", "address": " 제주특별자치도 제주시 애월읍 하귀2리 2615-6", "lat": 33.48344551, "lng": 126.3958145}, {"name": "클린하우스", "address": " 제주특별자치도 제주시 애월읍 하귀2리 2799-2", "lat": 33.48819902, "lng": 126.3896505}, {"name": "클린하우스", "address": " 제주특별자치도 제주시 애월읍 상귀리 257-4", "lat": 33.47373, "lng": 126.41148}, {"name": "클린하우스", "address": " 제주특별자치도 제주시 애월읍 하소로 353", "lat": 33.4514167, "lng": 126.390882}, {"name": "클린하우스", "address": " 제주특별자치도 제주시 애월읍 고성리 1449-1", "lat": 33.46554, "lng": 126.40974}, {"name": "클린하우스", "address": " 제주특별자치도 제주시 애월읍 어림비로 279", "lat": 33.40987, "lng": 126.33395}, {"name": "클린하우스", "address": " 제주특별자치도 제주시 애월읍 광령리 산24-3", "lat": 33.4545448, "lng": 126.4392331}, {"name": "클린하우스", "address": " 제주특별자치도 제주시 애월읍 신엄리 1807-1", "lat": 33.45722, "lng": 126.36784}, {"name": "클린하우스", "address": " 제주특별자치도 제주시 애월읍 납읍리 1609-5", "lat": 33.43853, "lng": 126.33179}, {"name": "클린하우스", "address": " 제주특별자치도 제주시 애월읍 유수암리 2017-3", "lat": 33.4433286, "lng": 126.4004878}, {"name": "클린하우스", "address": " 제주특별자치도 제주시 애월읍 광령리 1417-1", "lat": 33.46542319, "lng": 126.4375846}, {"name": "클린하우스", "address": " 제주특별자치도 제주시 애월읍 광령리 2607-6", "lat": 33.44622168, "lng": 126.4334282}, {"name": "클린하우스", "address": " 제주특별자치도 제주시 애월읍 광령5길 18", "lat": 33.46224482, "lng": 126.4356233}, {"name": "클린하우스", "address": " 제주특별자치도 제주시 애월읍 상귀리 1279-2", "lat": 33.46436, "lng": 126.40214}, {"name": "클린하우스", "address": " 제주특별자치도 제주시 애월읍 구엄리 873-12", "lat": 33.47723351, "lng": 126.3794887}, {"name": "클린하우스", "address": " 제주특별자치도 제주시 애월읍 유수암리 1574-4", "lat": 33.4310065, "lng": 126.3995601}, {"name": "클린하우스", "address": " 제주특별자치도 제주시 애월읍 하귀2리 2122-4", "lat": 33.47323133, "lng": 126.4001003}, {"name": "클린하우스", "address": " 제주특별자치도 제주시 애월읍 하광로 208", "lat": 33.46958, "lng": 126.41952}, {"name": "클린하우스", "address": " 제주특별자치도 제주시 애월읍 하귀로23길 58", "lat": 33.47504276, "lng": 126.4037105}, {"name": "클린하우스", "address": " 제주특별자치도 제주시 애월읍 애월리 415-2", "lat": 33.46560597, "lng": 126.3243615}, {"name": "클린하우스", "address": " 제주특별자치도 제주시 애월읍 하귀1리 437-4", "lat": 33.48905399, "lng": 126.4113452}, {"name": "클린하우스", "address": " 제주특별자치도 제주시 애월읍 하귀1리 1367-2", "lat": 33.48301494, "lng": 126.4074695}, {"name": "클린하우스", "address": " 제주특별자치도 제주시 애월읍 학원동길 4", "lat": 33.47321961, "lng": 126.3966304}, {"name": "클린하우스", "address": " 제주특별자치도 제주시 애월읍 소길리 793-3", "lat": 33.4345888, "lng": 126.3793363}, {"name": "클린하우스", "address": " 제주특별자치도 제주시 애월읍 사라길 133 ", "lat": 33.47050036, "lng": 126.4449191}, {"name": "클린하우스", "address": " 제주특별자치도 제주시 애월읍 항몽로 95", "lat": 33.47583781, "lng": 126.4090827}, {"name": "클린하우스", "address": " 제주특별자치도 제주시 애월읍 하귀26길 4-1", "lat": 33.4797611, "lng": 126.3956634}, {"name": "클린하우스", "address": " 제주특별자치도 제주시 애월읍 고내리 216-1", "lat": 33.46669003, "lng": 126.3491308}, {"name": "클린하우스", "address": " 제주특별자치도 제주시 애월읍 광령리 2602-1", "lat": 33.44509882, "lng": 126.4337196}, {"name": "클린하우스", "address": " 제주특별자치도 제주시 애월읍 항몽로 3", "lat": 33.48319902, "lng": 126.4041509}, {"name": "클린하우스", "address": " 제주특별자치도 제주시 애월읍 하귀1리 53-5", "lat": 33.48139926, "lng": 126.4225506}, {"name": "클린하우스", "address": " 제주특별자치도 제주시 애월읍 중구엄길 39", "lat": 33.47810554, "lng": 126.3746197}, {"name": "클린하우스", "address": " 제주특별자치도 제주시 애월읍 봉성리 4096-4", "lat": 33.4172, "lng": 126.31109}, {"name": "클린하우스", "address": " 제주특별자치도 제주시 애월읍 금성리 599-4", "lat": 33.44472, "lng": 126.3004}, {"name": "클린하우스", "address": " 제주특별자치도 제주시 애월읍 수산리 2004-1", "lat": 33.47059, "lng": 126.37995}, {"name": "클린하우스", "address": " 제주특별자치도 제주시 애월읍 광령4길 28", "lat": 33.45918966, "lng": 126.4360215}, {"name": "클린하우스", "address": " 제주특별자치도 제주시 애월읍 일주서로 6349", "lat": 33.46326116, "lng": 126.3325233}, {"name": "클린하우스", "address": " 제주특별자치도 제주시 애월읍 일주서로 6322", "lat": 33.4618977, "lng": 126.330136}, {"name": "클린하우스", "address": " 제주특별자치도 제주시 애월읍 광령리 901-2", "lat": 33.45064075, "lng": 126.4383751}, {"name": "클린하우스", "address": " 제주특별자치도 제주시 애월읍 구몰동길 65", "lat": 33.42958, "lng": 126.30752}, {"name": "클린하우스", "address": " 제주특별자치도 제주시 애월읍 봉성로3길 17", "lat": 33.41921, "lng": 126.31068}, {"name": "클린하우스", "address": " 제주특별자치도 제주시 애월읍 납읍리 1595-2", "lat": 33.43729, "lng": 126.33181}, {"name": "클린하우스", "address": " 제주특별자치도 제주시 애월읍 신엄리 725-1", "lat": 33.46942, "lng": 126.37243}, {"name": "클린하우스", "address": " 제주특별자치도 제주시 애월읍 신엄리 1724-2", "lat": 33.46224, "lng": 126.36691}, {"name": "클린하우스", "address": " 제주특별자치도 제주시 애월읍 용흥2길 39", "lat": 33.46038, "lng": 126.36638}, {"name": "클린하우스", "address": " 제주특별자치도 제주시 애월읍 하귀1리 1603-1", "lat": 33.47049894, "lng": 126.4448612}, {"name": "클린하우스", "address": " 제주특별자치도 제주시 애월읍 답동3길 18", "lat": 33.47626204, "lng": 126.4065132}, {"name": "클린하우스", "address": " 제주특별자치도 제주시 애월읍 상하귀길 40-26", "lat": 33.47481, "lng": 126.41209}, {"name": "클린하우스", "address": " 제주특별자치도 제주시 애월읍 광상로 115", "lat": 33.44688, "lng": 126.41836}, {"name": "클린하우스", "address": " 제주특별자치도 제주시 애월읍 고성남길 101", "lat": 33.42869621, "lng": 126.4292515}, {"name": "클린하우스", "address": " 제주특별자치도 제주시 애월읍 중산간서로 6566-1", "lat": 33.46335017, "lng": 126.430924}, {"name": "클린하우스", "address": " 제주특별자치도 제주시 애월읍 광령평화2길 142-15", "lat": 33.4324944, "lng": 126.4327288}, {"name": "클린하우스", "address": " 제주특별자치도 제주시 애월읍 광령남3길 49", "lat": 33.45145228, "lng": 126.4328332}, {"name": "클린하우스", "address": " 제주특별자치도 제주시 애월읍 광령자종길 54", "lat": 33.46684, "lng": 126.42194}, {"name": "클린하우스", "address": " 제주특별자치도 제주시 구좌읍 해맞이해안로 9", "lat": 33.55663181, "lng": 126.7588547}, {"name": "클린하우스", "address": " 제주특별자치도 제주시 구좌읍 만장굴길 122", "lat": 33.53586821, "lng": 126.7720925}, {"name": "클린하우스", "address": " 제주특별자치도 제주시 구좌읍 만장굴길 182", "lat": 33.52901265, "lng": 126.7722164}, {"name": "클린하우스", "address": " 제주특별자치도 제주시 구좌읍 김녕로21길 21", "lat": 33.55777747, "lng": 126.7558235}, {"name": "클린하우스", "address": " 제주특별자치도 제주시 구좌읍 김녕리 492", "lat": 33.55820912, "lng": 126.762913}, {"name": "클린하우스", "address": " 제주특별자치도 제주시 구좌읍 김녕리 1247", "lat": 33.55649478, "lng": 126.7534193}, {"name": "클린하우스", "address": " 제주특별자치도 제주시 구좌읍 김녕로 141", "lat": 33.55535996, "lng": 126.7528388}, {"name": "클린하우스", "address": " 제주특별자치도 제주시 구좌읍 김녕리 1466-2", "lat": 33.55663032, "lng": 126.7525256}, {"name": "클린하우스", "address": " 제주특별자치도 제주시 구좌읍 김녕로 118-20", "lat": 33.55240346, "lng": 126.7516659}, {"name": "클린하우스", "address": " 제주특별자치도 제주시 구좌읍 김녕로 118", "lat": 33.55476625, "lng": 126.7507435}, {"name": "클린하우스", "address": " 제주특별자치도 제주시 구좌읍 김녕로11길 14-1", "lat": 33.55550853, "lng": 126.750079}, {"name": "클린하우스", "address": " 제주특별자치도 제주시 구좌읍 해맞이해안로 200", "lat": 33.56415, "lng": 126.77344}, {"name": "클린하우스", "address": " 제주특별자치도 제주시 구좌읍 김녕로9길 7", "lat": 33.55477481, "lng": 126.7487328}, {"name": "클린하우스", "address": " 제주특별자치도 제주시 구좌읍 김녕로 93", "lat": 33.55444054, "lng": 126.7480489}, {"name": "클린하우스", "address": " 제주특별자치도 제주시 구좌읍 김녕항3길 7", "lat": 33.5561633, "lng": 126.7472072}, {"name": "클린하우스", "address": " 제주특별자치도 제주시 구좌읍 김녕리 3722", "lat": 33.55711951, "lng": 126.7473428}, {"name": "클린하우스", "address": "제주특별자치도 제주시 구좌읍 김녕항1길 30", "lat": 33.5576639, "lng": 126.7447507}, {"name": "클린하우스", "address": "제주특별자치도 제주시 구좌읍 김녕로 45", "lat": 33.55525252, "lng": 126.7438881}, {"name": "클린하우스", "address": "제주특별자치도 제주시 구좌읍 김녕남2길 36", "lat": 33.54831286, "lng": 126.7425371}, {"name": "클린하우스", "address": " 제주특별자치도 제주시 구좌읍 구좌해안로 229-16", "lat": 33.5579988, "lng": 126.7373986}, {"name": "클린하우스", "address": "제주특별자치도 제주시 구좌읍 김녕리 4402", "lat": 33.5555044, "lng": 126.7351502}, {"name": "클린하우스", "address": " 제주특별자치도 제주시 구좌읍 일주동로 1853", "lat": 33.5562169, "lng": 126.7292655}, {"name": "클린하우스", "address": " 제주특별자치도 제주시 구좌읍 동김길 150", "lat": 33.5473157, "lng": 126.7316711}, {"name": "클린하우스", "address": " 제주특별자치도 제주시 구좌읍 동김길 162-20", "lat": 33.54586591, "lng": 126.7315697}, {"name": "클린하우스", "address": "제주특별자치도 제주시 구좌읍 김녕리 497-6", "lat": 33.55571645, "lng": 126.7609501}, {"name": "클린하우스", "address": " 제주특별자치도 제주시 구좌읍 월덕로 522", "lat": 33.50471974, "lng": 126.7718401}, {"name": "클린하우스", "address": "제주특별자치도 제주시 구좌읍 덕천리 245", "lat": 33.50203381, "lng": 126.7714439}, {"name": "클린하우스", "address": "제주특별자치도 제주시 구좌읍 덕천리 1264-1", "lat": 33.48490038, "lng": 126.7478221}, {"name": "클린하우스", "address": "제주특별자치도 제주시 구좌읍 덕천리 1181", "lat": 33.48356705, "lng": 126.7464703}, {"name": "클린하우스", "address": "제주특별자치도 제주시 구좌읍 동복리 1428-5", "lat": 33.55137535, "lng": 126.7127679}, {"name": "클린하우스", "address": "제주특별자치도 제주시 구좌읍 동복리 1705-109", "lat": 33.54982616, "lng": 126.7092768}, {"name": "클린하우스", "address": " 제주특별자치도 제주시 구좌읍 조천우회로 988", "lat": 33.54811679, "lng": 126.706524}, {"name": "클린하우스", "address": "제주특별자치도 제주시 구좌읍 동복리 766-1", "lat": 33.5524693, "lng": 126.7205023}, {"name": "클린하우스", "address": " 제주특별자치도 제주시 구좌읍 상도로 3", "lat": 33.5143129, "lng": 126.8658546}, {"name": "클린하우스", "address": "제주특별자치도 제주시 구좌읍 세종로 201", "lat": 33.5076039, "lng": 126.8774097}, {"name": "클린하우스", "address": "제주특별자치도 제주시 구좌읍 상도리 412", "lat": 33.51606493, "lng": 126.8673805}, {"name": "클린하우스", "address": "제주특별자치도 제주시 구좌읍 상도리 460-18", "lat": 33.51636376, "lng": 126.8684545}, {"name": "클린하우스", "address": "제주특별자치도 제주시 구좌읍 상도리 469-18", "lat": 33.52097636, "lng": 126.8646947}, {"name": "클린하우스", "address": "제주특별자치도 제주시 구좌읍 세화리 1561-6", "lat": 33.5226553, "lng": 126.8525165}, {"name": "클린하우스", "address": " 제주특별자치도 제주시 구좌읍 일주동로 3132", "lat": 33.52173059, "lng": 126.8539143}, {"name": "클린하우스", "address": " 제주특별자치도 제주시 구좌읍 일주동로 3148", "lat": 33.5207834, "lng": 126.8549276}, {"name": "클린하우스", "address": "제주특별자치도 제주시 구좌읍 세화리 1139-1", "lat": 33.5192702, "lng": 126.8555905}, {"name": "클린하우스", "address": "제주특별자치도 제주시 구좌읍 세화리 875-3", "lat": 33.5175913, "lng": 126.8572801}, {"name": "클린하우스", "address": " 제주특별자치도 제주시 구좌읍 세송로 17", "lat": 33.5167198, "lng": 126.8601045}, {"name": "클린하우스", "address": " 제주특별자치도 제주시 구좌읍 해맞이해안로 1465", "lat": 33.52473282, "lng": 126.8594104}, {"name": "클린하우스", "address": " 제주특별자치도 제주시 구좌읍 세화11길 22", "lat": 33.52311187, "lng": 126.8612052}, {"name": "클린하우스", "address": " 제주특별자치도 제주시 구좌읍 세화14길 6", "lat": 33.5207443, "lng": 126.86051}, {"name": "클린하우스", "address": " 제주특별자치도 제주시 구좌읍 세화12길 12-1", "lat": 33.52013645, "lng": 126.8594673}, {"name": "클린하우스", "address": " 제주특별자치도 제주시 구좌읍 세화10길 5-1", "lat": 33.52044215, "lng": 126.8583191}, {"name": "클린하우스", "address": " 제주특별자치도 제주시 구좌읍 세화8길 10 ", "lat": 33.52150402, "lng": 126.8573684}, {"name": "클린하우스", "address": " 제주특별자치도 제주시 구좌읍 세화7길 12", "lat": 33.52318734, "lng": 126.8589148}, {"name": "클린하우스", "address": "제주특별자치도 제주시 구좌읍 세화리 1544-5", "lat": 33.52235131, "lng": 126.8554983}, {"name": "클린하우스", "address": "제주특별자치도 제주시 구좌읍 세화리 1477-37", "lat": 33.52479284, "lng": 126.8617294}, {"name": "클린하우스", "address": "제주특별자치도 제주시 구좌읍 세화리 1515-2", "lat": 33.52449173, "lng": 126.854412}, {"name": "클린하우스", "address": "제주특별자치도 제주시 구좌읍 세화리 1491-3", "lat": 33.52424866, "lng": 126.8565701}, {"name": "클린하우스", "address": " 제주특별자치도 제주시 구좌읍 세화3길 18", "lat": 33.52483722, "lng": 126.8558761}, {"name": "클린하우스", "address": " 제주특별자치도 제주시 구좌읍 해맞이해안로 1412", "lat": 33.52573753, "lng": 126.8578237}, {"name": "클린하우스", "address": "제주특별자치도 제주시 구좌읍 세화리 3641-4", "lat": 33.52746653, "lng": 126.8560644}, {"name": "클린하우스", "address": "제주특별자치도 제주시 구좌읍 번영로 2005", "lat": 33.34630069, "lng": 126.736405}, {"name": "클린하우스", "address": "제주특별자치도 제주시 구좌읍 월정7길 1", "lat": 33.55188073, "lng": 126.7982874}, {"name": "클린하우스", "address": "제주특별자치도 제주시 구좌읍 월정5길 18-1", "lat": 33.55234109, "lng": 126.7960179}, {"name": "클린하우스", "address": "제주특별자치도 제주시 구좌읍 월정3길 57", "lat": 33.55567173, "lng": 126.7950365}, {"name": "클린하우스", "address": "제주특별자치도 제주시 구좌읍 월정리 555-2", "lat": 33.55703141, "lng": 126.7944979}, {"name": "클린하우스", "address": "제주특별자치도 제주시 구좌읍 월정리 1321-13", "lat": 33.55083, "lng": 126.78232}, {"name": "클린하우스", "address": "제주특별자치도 제주시 구좌읍 월정리 306-4", "lat": 33.55213111, "lng": 126.7915205}, {"name": "클린하우스", "address": "제주특별자치도 제주시 구좌읍 월정리 797-22", "lat": 33.55637711, "lng": 126.7907493}, {"name": "클린하우스", "address": " 제주특별자치도 제주시 구좌읍 해맞이해안로 2196", "lat": 33.50347899, "lng": 126.9125563}, {"name": "클린하우스", "address": "제주특별자치도 제주시 구좌읍 종달리 1396-1", "lat": 33.50977864, "lng": 126.903179}, {"name": "클린하우스", "address": "제주특별자치도 제주시 구좌읍 평대리 127-1", "lat": 33.52401972, "lng": 126.8508037}, {"name": "클린하우스", "address": "제주특별자치도 제주시 구좌읍 평대9길 15-2", "lat": 33.5258771, "lng": 126.8499055}, {"name": "클린하우스", "address": " 제주특별자치도 제주시 구좌읍 평대9길 27", "lat": 33.5263197, "lng": 126.8509821}, {"name": "클린하우스", "address": " 제주특별자치도 제주시 구좌읍 평대13길 26", "lat": 33.5252431, "lng": 126.8529466}, {"name": "클린하우스", "address": " 제주특별자치도 제주시 구좌읍 평대13길 54", "lat": 33.52712431, "lng": 126.8543003}, {"name": "클린하우스", "address": " 제주특별자치도 제주시 구좌읍 평대9길 54", "lat": 33.52798526, "lng": 126.8526739}, {"name": "클린하우스", "address": "제주특별자치도 제주시 구좌읍 해맞이해안로 1336", "lat": 33.52975111, "lng": 126.8528302}, {"name": "클린하우스", "address": " 제주특별자치도 제주시 구좌읍 해맞이해안로 1284", "lat": 33.53246795, "lng": 126.8505522}, {"name": "클린하우스", "address": " 제주특별자치도 제주시 구좌읍 평대7길 57", "lat": 33.53258033, "lng": 126.8448312}, {"name": "클린하우스", "address": " 제주특별자치도 제주시 구좌읍 평대7길 24", "lat": 33.53033488, "lng": 126.8437373}, {"name": "클린하우스", "address": " 제주특별자치도 제주시 구좌읍 일주동로 3007", "lat": 33.52839941, "lng": 126.842932}, {"name": "클린하우스", "address": " 제주특별자치도 제주시 구좌읍 평대5길 7", "lat": 33.52970431, "lng": 126.8401275}, {"name": "클린하우스", "address": " 제주특별자치도 제주시 구좌읍 평대5길 43", "lat": 33.53233568, "lng": 126.8422117}, {"name": "클린하우스", "address": "제주특별자치도 제주시 구좌읍 평대리 1994-6", "lat": 33.53304955, "lng": 126.8405412}, {"name": "클린하우스", "address": "제주특별자치도 제주시 구좌읍 평대리 2026-16", "lat": 33.5351204, "lng": 126.8400375}, {"name": "클린하우스", "address": " 제주특별자치도 제주시 구좌읍 대수길 26-1", "lat": 33.53711575, "lng": 126.8382145}, {"name": "클린하우스", "address": " 제주특별자치도 제주시 구좌읍 일주동로 2948", "lat": 33.53078128, "lng": 126.8369516}, {"name": "클린하우스", "address": " 제주특별자치도 제주시 구좌읍 평대12길 15", "lat": 33.52329496, "lng": 126.8488862}, {"name": "클린하우스", "address": "제주특별자치도 제주시 구좌읍 평대리 282-3", "lat": 33.5215062, "lng": 126.8465931}, {"name": "클린하우스", "address": " 제주특별자치도 제주시 구좌읍 세평항로 7-1", "lat": 33.52423144, "lng": 126.8530465}, {"name": "클린하우스", "address": "제주특별자치도 제주시 구좌읍 평대리 2947-7", "lat": 33.4908178, "lng": 126.8136659}, {"name": "클린하우스", "address": "제주특별자치도 제주시 구좌읍 하도리 3200-19", "lat": 33.52533176, "lng": 126.8635884}, {"name": "클린하우스", "address": "제주특별자치도 제주시 구좌읍 하도리 3359-60", "lat": 33.5227643, "lng": 126.8664184}, {"name": "클린하우스", "address": " 제주특별자치도 제주시 구좌읍 면수길 7", "lat": 33.5217098, "lng": 126.8678647}, {"name": "클린하우스", "address": "제주특별자치도 제주시 구좌읍 하도리 3314-24", "lat": 33.51866706, "lng": 126.8678023}, {"name": "클린하우스", "address": "제주특별자치도 제주시 구좌읍 일주동로 3280", "lat": 33.51857926, "lng": 126.8683215}, {"name": "클린하우스", "address": "제주특별자치도 제주시 구좌읍 하도리 2321-3", "lat": 33.51789561, "lng": 126.8775518}, {"name": "클린하우스", "address": " 제주특별자치도 제주시 구좌읍 하도3길 29", "lat": 33.52031993, "lng": 126.8794552}, {"name": "클린하우스", "address": "제주특별자치도 제주시 구좌읍 하도리 1972", "lat": 33.5256873, "lng": 126.8809632}, {"name": "클린하우스", "address": "제주특별자치도 제주시 구좌읍 하도서문길 9", "lat": 33.52829889, "lng": 126.8814546}, {"name": "클린하우스", "address": "제주특별자치도 제주시 구좌읍 하도리 1792-1", "lat": 33.52581268, "lng": 126.8831057}, {"name": "클린하우스", "address": "제주특별자치도 제주시 구좌읍 하도리 1636", "lat": 33.5221022, "lng": 126.883338}, {"name": "클린하우스", "address": "제주특별자치도 제주시 구좌읍 하도리 730-1 ", "lat": 33.5159355, "lng": 126.8897444}, {"name": "클린하우스", "address": "제주특별자치도 제주시 구좌읍 하도리 1130-2", "lat": 33.5145075, "lng": 126.886754}, {"name": "클린하우스", "address": " 제주특별자치도 제주시 구좌읍 해맞이해안로 1897-27", "lat": 33.52004077, "lng": 126.9036497}, {"name": "클린하우스", "address": "제주특별자치도 제주시 구좌읍 하도리 947-37", "lat": 33.5101621, "lng": 126.8933358}, {"name": "클린하우스", "address": " 제주특별자치도 제주시 구좌읍 하도13길 6", "lat": 33.50876516, "lng": 126.887823}, {"name": "클린하우스", "address": "제주특별자치도 제주시 구좌읍 한동리 1358-7", "lat": 33.54283, "lng": 126.83072}, {"name": "클린하우스", "address": "제주특별자치도 제주시 구좌읍 해맞이해안로 1088", "lat": 33.53962115, "lng": 1126.835987}, {"name": "클린하우스", "address": "제주특별자치도 제주시 구좌읍 한동리 1208", "lat": 33.53856115, "lng": 126.8300646}, {"name": "클린하우스", "address": "제주특별자치도 제주시 구좌읍 한동로1길 15", "lat": 33.53637, "lng": 126.82767}, {"name": "클린하우스", "address": " 제주특별자치도 제주시 구좌읍 한동로 64", "lat": 33.53474, "lng": 126.82357}, {"name": "클린하우스", "address": "제주특별자치도 제주시 구좌읍 한동리 2004-1", "lat": 33.53306, "lng": 126.81972}, {"name": "클린하우스", "address": "제주특별자치도 제주시 구좌읍 한동리 1113", "lat": 33.53702, "lng": 126.82432}, {"name": "클린하우스", "address": " 제주특별자치도 제주시 구좌읍 한동북1길 2", "lat": 33.53925759, "lng": 126.8266802}, {"name": "클린하우스", "address": "제주특별자치도 제주시 구좌읍 한동리 10-101", "lat": 33.54000353, "lng": 126.8332939}, {"name": "클린하우스", "address": " 제주특별자치도 제주시 구좌읍 해맞이해안로 680-6", "lat": 33.56006777, "lng": 126.8154363}, {"name": "클린하우스", "address": " 제주특별자치도 제주시 구좌읍 해맞이해안로 680-50", "lat": 33.55727315, "lng": 126.8186343}, {"name": "클린하우스", "address": " 제주특별자치도 제주시 구좌읍 행원로9길 29", "lat": 33.55516865, "lng": 126.8095922}, {"name": "클린하우스", "address": " 제주특별자치도 제주시 구좌읍 행원로7길 18-21", "lat": 33.55448852, "lng": 126.8084096}, {"name": "클린하우스", "address": "제주특별자치도 제주시 구좌읍 행원리 1537-26", "lat": 33.55465778, "lng": 126.8007126}, {"name": "클린하우스", "address": " 제주특별자치도 제주시 구좌읍 해맞이해안로 571", "lat": 33.55667377, "lng": 126.8054436}, {"name": "클린하우스", "address": " 제주특별자치도 제주시 구좌읍 행원로7길 12", "lat": 33.55499131, "lng": 126.8068915}, {"name": "클린하우스", "address": " 제주특별자치도 제주시 구좌읍 행원로 120", "lat": 33.55321743, "lng": 126.8076852}, {"name": "클린하우스", "address": "제주특별자치도 제주시 구좌읍 행원로8길 43", "lat": 33.54941409, "lng": 126.8050671}, {"name": "클린하우스", "address": " 제주특별자치도 제주시 구좌읍 행원용사촌길 14", "lat": 33.53541194, "lng": 126.7950465}, {"name": "클린하우스", "address": "제주특별자치도 제주시 구좌읍 행원리 3258", "lat": 33.5249043, "lng": 126.7826629}, {"name": "클린하우스", "address": " 제주특별자치도 제주시 구좌읍 덕행로 335", "lat": 33.52082897, "lng": 126.7877936}, {"name": "클린하우스", "address": " 제주특별자치도 제주시 구좌읍 덕행로 450-4", "lat": 33.51323679, "lng": 126.7797911}, {"name": "클린하우스", "address": " 제주특별자치도 제주시 구좌읍 일주동로 2670", "lat": 33.54266, "lng": 126.81027}, {"name": "클린하우스", "address": " 제주특별자치도 제주시 조천읍 신촌3길 18", "lat": 33.53475408, "lng": 126.6186069}, {"name": "클린하우스", "address": " 제주특별자치도 제주시 조천읍 신촌북1길 27", "lat": 33.53605167, "lng": 126.6173472}, {"name": "클린하우스", "address": "제주특별자치도 제주시 조천읍 신촌리 2284-5", "lat": 33.5374028, "lng": 126.6162237}, {"name": "클린하우스", "address": " 제주특별자치도 제주시 조천읍 신촌북3길 4", "lat": 33.53736267, "lng": 126.6189215}, {"name": "클린하우스", "address": " 제주특별자치도 제주시 조천읍 신촌북2길 31-2", "lat": 33.53798453, "lng": 126.6196394}, {"name": "클린하우스", "address": " 제주특별자치도 제주시 조천읍 신촌9길 40-1", "lat": 33.53815041, "lng": 126.6230567}, {"name": "클린하우스", "address": " 제주특별자치도 제주시 조천읍 조천7길 25", "lat": 33.53870048, "lng": 126.6346301}, {"name": "클린하우스", "address": "제주특별자치도 제주시 조천읍 조천11길 22-2", "lat": 33.53782213, "lng": 126.638172}, {"name": "클린하우스", "address": " 제주특별자치도 제주시 조천읍 신북로 265", "lat": 33.53858763, "lng": 126.6398471}, {"name": "클린하우스", "address": "제주특별자치도 제주시 조천읍 조천리 2908", "lat": 33.54183238, "lng": 126.6367587}, {"name": "클린하우스", "address": "제주특별자치도 제주시 조천읍 조천북1길 35-8", "lat": 33.54200919, "lng": 126.6344713}, {"name": "클린하우스", "address": " 제주특별자치도 제주시 조천읍 조천14길 6", "lat": 33.53719243, "lng": 126.6399652}, {"name": "클린하우스", "address": " 제주특별자치도 제주시 조천읍 북촌11길 39", "lat": 33.5503976, "lng": 126.6937462}, {"name": "클린하우스", "address": "제주특별자치도 제주시 조천읍 남조로 3020", "lat": 33.52960519, "lng": 126.6447753}, {"name": "클린하우스", "address": "제주특별자치도 제주시 조천읍 함덕서4길 62", "lat": 33.53976, "lng": 126.66655}, {"name": "클린하우스", "address": "제주특별자치도 제주시 조천읍 와흘로 119", "lat": 33.4934323, "lng": 126.6347705}, {"name": "클린하우스", "address": "제주특별자치도 제주시 조천읍 와흘리 62", "lat": 33.47521469, "lng": 126.6546887}, {"name": "클린하우스", "address": "제주특별자치도 제주시 조천읍 대흘리 2341", "lat": 33.4993891, "lng": 126.6526469}, {"name": "클린하우스", "address": "제주특별자치도 제주시 조천읍 신북로 515", "lat": 33.54224, "lng": 126.6652}, {"name": "클린하우스", "address": "제주특별자치도 제주시 조천읍 대흘리2787", "lat": 33.51305105, "lng": 126.6714339}, {"name": "클린하우스", "address": "제주특별자치도 제주시 조천읍 함와로 312", "lat": 33.51257708, "lng": 126.6764233}, {"name": "클린하우스", "address": "제주특별자치도 제주시 조천읍 조함해안로 441", "lat": 33.5461, "lng": 126.66202}, {"name": "클린하우스", "address": "제주특별자치도 제주시 조천읍 조함해안로 585", "lat": 33.54416, "lng": 126.67465}, {"name": "클린하우스", "address": "제주특별자치도 제주시 조천읍 조함해안로 468", "lat": 33.54406, "lng": 126.66341}, {"name": "클린하우스", "address": "제주특별자치도 제주시 조천읍 신북로 520", "lat": 33.54186, "lng": 126.66508}, {"name": "클린하우스", "address": "제주특별자치도 제주시 조천읍 함덕리 290-51", "lat": 33.53466, "lng": 126.67361}, {"name": "클린하우스", "address": "제주특별자치도 제주시 조천읍 함덕남2길 28", "lat": 33.53493, "lng": 126.66252}, {"name": "클린하우스", "address": "제주특별자치도 제주시 조천읍 조천4길 6", "lat": 33.53456774, "lng": 126.6328178}, {"name": "클린하우스", "address": "제주특별자치도 제주시 조천읍 함덕2길 36", "lat": 33.54126, "lng": 126.65526}, {"name": "클린하우스", "address": "제주특별자치도 제주시 조천읍 함덕16길 15-13", "lat": 33.54048, "lng": 126.66824}, {"name": "클린하우스", "address": "제주특별자치도 제주시 조천읍 신촌리 529-29", "lat": 33.53628537, "lng": 126.6255967}, {"name": "클린하우스", "address": "제주특별자치도 제주시 조천읍 함덕리 1024-3", "lat": 33.54482, "lng": 126.66244}, {"name": "클린하우스", "address": "제주특별자치도 제주시 조천읍 함덕남14길 2", "lat": 33.53316, "lng": 126.67612}, {"name": "클린하우스", "address": "제주특별자치도 제주시 조천읍 신촌북3길 62", "lat": 33.53771215, "lng": 126.6134298}, {"name": "클린하우스", "address": "제주특별자치도 제주시 조천읍 신촌9길 22", "lat": 33.5363885, "lng": 126.6231344}, {"name": "클린하우스", "address": "제주특별자치도 제주시 조천읍 북촌1길43", "lat": 33.54779, "lng": 126.6842416}, {"name": "클린하우스", "address": "제주특별자치도 제주시 조천읍 북촌11길 20", "lat": 33.55018555, "lng": 126.6953903}, {"name": "클린하우스", "address": "제주특별자치도 제주시 조천읍 북촌12길 21-1", "lat": 33.54760459, "lng": 126.6987741}, {"name": "클린하우스", "address": "제주특별자치도 제주시 조천읍 일주동로 1511", "lat": 33.5484637, "lng": 126.695291}, {"name": "클린하우스", "address": "제주특별자치도 제주시 조천읍 조천리 2681-2", "lat": 33.53959934, "lng": 126.6366858}, {"name": "클린하우스", "address": "제주특별자치도 제주시 조천읍 신촌7길 13", "lat": 33.53562075, "lng": 126.6214811}, {"name": "클린하우스", "address": "제주특별자치도 제주시 조천읍 선화길 22", "lat": 33.4812022, "lng": 126.7126715}, {"name": "클린하우스", "address": "제주특별자치도 제주시 조천읍 선흘리 1946-1", "lat": 33.459002, "lng": 126.7030906}, {"name": "클린하우스", "address": "제주특별자치도 제주시 조천읍 함덕리 4145-1", "lat": 33.53908, "lng": 126.67355}, {"name": "클린하우스", "address": "제주특별자치도 제주시 조천읍 조천북1길 11-13", "lat": 33.5409772, "lng": 126.6355176}, {"name": "클린하우스", "address": "제주특별자치도 제주시 조천읍 우진길 34", "lat": 33.4630201, "lng": 126.7001093}, {"name": "클린하우스", "address": "제주특별자치도 제주시 조천읍 선교로 196", "lat": 33.4860249, "lng": 126.6998045}, {"name": "클린하우스", "address": "제주특별자치도 제주시 조천읍 조천리 2325-5", "lat": 33.53595157, "lng": 126.6382248}, {"name": "클린하우스", "address": "제주특별자치도 제주시 조천읍 신촌남1길 41", "lat": 33.52731521, "lng": 126.6179125}, {"name": "클린하우스", "address": "제주특별자치도 제주시 조천읍 와흘전2길 53", "lat": 33.46968415, "lng": 126.6391529}, {"name": "클린하우스", "address": "제주특별자치도 제주시 조천읍 교래3길 98", "lat": 33.43207462, "lng": 126.6746066}, {"name": "클린하우스", "address": "제주특별자치도 제주시 조천읍 조천12길 14-12", "lat": 33.53535552, "lng": 126.6402033}, {"name": "클린하우스", "address": "제주특별자치도 제주시 조천읍 함덕리 951-2", "lat": 33.53937, "lng": 126.67001}, {"name": "클린하우스", "address": "제주특별자치도 제주시 조천읍 선흘리 4018", "lat": 33.484831, "lng": 126.6980303}, {"name": "클린하우스", "address": "제주특별자치도 제주시 조천읍 신와로 66", "lat": 33.52237, "lng": 126.61659}, {"name": "클린하우스", "address": "제주특별자치도 제주시 조천읍 조천리 2204-2", "lat": 33.53333923, "lng": 126.6360478}, {"name": "클린하우스", "address": "제주특별자치도 제주시 조천읍 조천리 2281-5", "lat": 33.53317871, "lng": 126.6382107}, {"name": "클린하우스", "address": "제주특별자치도 제주시 조천읍 함덕리 4154", "lat": 33.53959, "lng": 126.6751}, {"name": "클린하우스", "address": "제주특별자치도 제주시 조천읍 함덕남14길 2", "lat": 33.53316, "lng": 126.67612}, {"name": "클린하우스", "address": "제주특별자치도 제주시 조천읍 교래3길 98", "lat": 33.43210101, "lng": 126.6746576}, {"name": "클린하우스", "address": "제주특별자치도 제주시 조천읍 선진길 42", "lat": 33.4588428, "lng": 126.7065327}, {"name": "클린하우스", "address": "제주특별자치도 제주시 조천읍 신조로 152", "lat": 33.51826328, "lng": 126.635165}, {"name": "클린하우스", "address": "제주특별자치도 제주시 조천읍 함덕리 2973-1", "lat": 33.54035, "lng": 126.6578}, {"name": "클린하우스", "address": "제주특별자치도 제주시 조천읍 함덕12길 39", "lat": 33.5387, "lng": 126.66481}, {"name": "클린하우스", "address": "제주특별자치도 제주시 조천읍 신북로 77", "lat": 33.53475561, "lng": 126.6221199}, {"name": "클린하우스", "address": "제주특별자치도 제주시 조천읍 함덕27길 4-6", "lat": 33.54088, "lng": 126.67555}, {"name": "클린하우스", "address": "제주특별자치도 제주시 조천읍 함덕8길 35", "lat": 33.54052, "lng": 126.66334}, {"name": "클린하우스", "address": "제주특별자치도 제주시 조천읍 함덕8길 49", "lat": 33.53913, "lng": 126.66369}, {"name": "클린하우스", "address": "제주특별자치도 제주시 조천읍 북촌5길 12", "lat": 33.5484175, "lng": 126.6921639}, {"name": "클린하우스", "address": "제주특별자치도 제주시 조천읍 북촌북길 58-3", "lat": 33.55003968, "lng": 126.6923688}, {"name": "클린하우스", "address": "제주특별자치도 제주시 조천읍 북촌13길 23", "lat": 33.55116024, "lng": 126.6955676}, {"name": "클린하우스", "address": "제주특별자치도 제주시 조천읍 북촌북길 17-1", "lat": 33.5488032, "lng": 126.6904363}, {"name": "클린하우스", "address": "제주특별자치도 제주시 조천읍 함덕16길 25", "lat": 33.54066, "lng": 126.66612}, {"name": "클린하우스", "address": "제주특별자치도 제주시 조천읍 남조로3길 91", "lat": 33.5161284, "lng": 126.6486187}, {"name": "클린하우스", "address": "제주특별자치도 제주시 조천읍 조천9길 10", "lat": 33.53692168, "lng": 126.6365585}, {"name": "클린하우스", "address": "제주특별자치도 제주시 조천읍 조천리 3095-7", "lat": 33.5362161, "lng": 126.6324162}, {"name": "클린하우스", "address": "제주특별자치도 제주시 조천읍 신촌7길 30", "lat": 33.53670847, "lng": 126.6220151}, {"name": "클린하우스", "address": "제주특별자치도 제주시 조천읍 신촌북2길 38-14", "lat": 33.53807197, "lng": 126.6209709}, {"name": "클린하우스", "address": "제주특별자치도 제주시 조천읍 신와로 101", "lat": 33.52009, "lng": 126.61855}, {"name": "클린하우스", "address": "제주특별자치도 제주시 조천읍 신조로 20", "lat": 33.51758688, "lng": 126.6219511}, {"name": "클린하우스", "address": "제주특별자치도 제주시 조천읍 함덕로 9 ", "lat": 33.54037, "lng": 126.67386}, {"name": "클린하우스", "address": "제주특별자치도 제주시 조천읍 미래로 242", "lat": 33.46821912, "lng": 126.678239}, {"name": "클린하우스", "address": "제주특별자치도 제주시 조천읍 신촌북2길 12 ", "lat": 33.53619327, "lng": 126.6196181}, {"name": "클린하우스", "address": "제주특별자치도 제주시 조천읍 신촌북1길 16 ", "lat": 33.53497248, "lng": 126.6172958}, {"name": "클린하우스", "address": "제주특별자치도 제주시 조천읍 남조로3길 41 ", "lat": 33.5205618, "lng": 126.647652}, {"name": "클린하우스", "address": "제주특별자치도 제주시 조천읍 함덕서4길 11", "lat": 33.53824, "lng": 126.6625}, {"name": "클린하우스", "address": "제주특별자치도 제주시 조천읍 함덕18길 32-1 ", "lat": 33.5379, "lng": 126.66897}, {"name": "클린하우스", "address": "제주특별자치도 제주시 조천읍 신촌4길 2 ", "lat": 33.53317146, "lng": 126.6196166}, {"name": "클린하우스", "address": "제주특별자치도 제주시 조천읍 신촌리 1861-2", "lat": 33.53465126, "lng": 126.6192113}, {"name": "클린하우스", "address": "제주특별자치도 제주시 조천읍 조천남4길 41", "lat": 33.53068663, "lng": 126.639936}, {"name": "클린하우스", "address": "제주특별자치도 제주시 조천읍 와흘리 산38", "lat": 33.4603319, "lng": 126.6540458}, {"name": "클린하우스", "address": "제주특별자치도 제주시 조천읍 와흘리 245-16", "lat": 33.47429198, "lng": 126.6459728}, {"name": "클린하우스", "address": "제주특별자치도 제주시 조천읍 대흘9길 23 ", "lat": 33.49463804, "lng": 126.6698628}, {"name": "클린하우스", "address": "제주특별자치도 제주시 조천읍 조천1길 4", "lat": 33.53560751, "lng": 126.6313067}, {"name": "클린하우스", "address": "제주특별자치도 제주시 조천읍 신북로 237 ", "lat": 33.53698573, "lng": 126.6379481}, {"name": "클린하우스", "address": "제주특별자치도 제주시 조천읍 조함해안로 217-1 ", "lat": 33.553341, "lng": 126.6441927}, {"name": "클린하우스", "address": "제주특별자치도 제주시 조천읍 북촌7길 17", "lat": 33.5491648, "lng": 126.6933165}, {"name": "클린하우스", "address": "제주특별자치도 제주시 조천읍 일주동로 1574 ", "lat": 33.55135264, "lng": 126.7015602}, {"name": "클린하우스", "address": "제주특별자치도 제주시 조천읍 신촌서5길 103 ", "lat": 33.53623852, "lng": 126.6153233}, {"name": "클린하우스", "address": "제주특별자치도 제주시 조천읍 신촌서5길 102", "lat": 33.5421051, "lng": 126.6482561}, {"name": "클린하우스", "address": "제주특별자치도 제주시 조천읍 북흘로 135 ", "lat": 33.53827353, "lng": 126.7013022}, {"name": "클린하우스", "address": "제주특별자치도 제주시 조천읍 신북로 194", "lat": 33.53496027, "lng": 126.6343661}, {"name": "클린하우스", "address": "제주특별자치도 제주시 조천읍 조천2길 19 ", "lat": 33.5333072, "lng": 126.6310709}, {"name": "클린하우스", "address": "제주특별자치도 제주시 조천읍 조천5길 3", "lat": 33.53562623, "lng": 126.6354504}, {"name": "클린하우스", "address": "제주특별자치도 제주시 조천읍 신촌2길 14 ", "lat": 33.53177572, "lng": 126.6190144}, {"name": "클린하우스", "address": "제주특별자치도 제주시 조천읍 선교로 569-36 ", "lat": 33.4567198, "lng": 126.7131274}, {"name": "클린하우스", "address": "제주특별자치도 제주시 조천읍 대흘남길 31 ", "lat": 33.47261819, "lng": 126.6628173}, {"name": "클린하우스", "address": "제주특별자치도 제주시 조천읍 조천리 917-3", "lat": 33.54630839, "lng": 126.6412895}, {"name": "클린하우스", "address": "제주특별자치도 제주시 조천읍 남조로 2023 ", "lat": 33.43921148, "lng": 126.6667487}, {"name": "클린하우스", "address": "제주특별자치도 제주시 조천읍 비자림로 422-25", "lat": 33.42639795, "lng": 126.6573712}, {"name": "클린하우스", "address": "제주특별자치도 제주시 조천읍 중산간동로 601 ", "lat": 33.5003831, "lng": 126.6505752}, {"name": "클린하우스", "address": "제주특별자치도 제주시 조천읍 일주동로 1511 ", "lat": 33.548584, "lng": 126.6960809}, {"name": "클린하우스", "address": "제주특별자치도 제주시 조천읍 북선로 144 ", "lat": 33.5271608, "lng": 126.6860951}, {"name": "클린하우스", "address": "제주특별자치도 제주시 조천읍 북흘로 376-9 ", "lat": 33.5166605, "lng": 126.705093}, {"name": "클린하우스", "address": "제주특별자치도 제주시 조천읍 신촌북3길 43", "lat": 33.53754496, "lng": 126.615343}, {"name": "클린하우스", "address": "제주특별자치도 제주시 조천읍 신북로 31 ", "lat": 33.53329038, "lng": 126.6168217}, {"name": "클린하우스", "address": "제주특별자치도 제주시 조천읍 신촌11길 26-14", "lat": 33.53771245, "lng": 126.6240221}, {"name": "클린하우스", "address": "제주특별자치도 제주시 조천읍 신조로 56 ", "lat": 33.51863358, "lng": 126.6253601}, {"name": "클린하우스", "address": "제주특별자치도 제주시 조천읍 신북로 61 ", "lat": 33.53410337, "lng": 126.6206852}, {"name": "클린하우스", "address": "제주특별자치도 제주시 조천읍 와산서1길 34 ", "lat": 33.494755, "lng": 126.6773904}, {"name": "클린하우스", "address": "제주특별자치도 제주시 조천읍 와흘리 산 13-39 ", "lat": 33.46167971, "lng": 126.659197}, {"name": "클린하우스", "address": "제주특별자치도 제주시 조천읍 종인내길 69 ", "lat": 33.50050331, "lng": 126.620299}, {"name": "클린하우스", "address": "제주특별자치도 제주시 조천읍 번영로 941 ", "lat": 33.47610302, "lng": 126.6379538}, {"name": "클린하우스", "address": "제주특별자치도 제주시 조천읍 와흘전2길 51-20", "lat": 33.46964528, "lng": 126.6404146}, {"name": "클린하우스", "address": "제주특별자치도 제주시 조천읍 신북로 195", "lat": 33.53599208, "lng": 126.6343808}, {"name": "클린하우스", "address": "제주특별자치도 제주시 조천읍 조천리 2700", "lat": 33.5404852, "lng": 126.63674}, {"name": "클린하우스", "address": "제주특별자치도 제주시 조천읍 조천리 2653-1", "lat": 33.53994982, "lng": 126.6388707}, {"name": "클린하우스", "address": "제주특별자치도 제주시 조천읍 일주동로 1234 ", "lat": 33.53714, "lng": 126.67168}, {"name": "클린하우스", "address": "제주특별자치도 제주시 조천읍 함덕3길 41 ", "lat": 33.54614, "lng": 126.65549}, {"name": "클린하우스", "address": "제주특별자치도 제주시 조천읍 함덕10길 6 ", "lat": 33.54172, "lng": 126.66411}, {"name": "클린하우스", "address": "제주특별자치도 제주시 조천읍 함덕16길 15-13 ", "lat": 33.53998, "lng": 126.66779}, {"name": "클린하우스", "address": "제주특별자치도 제주시 조천읍 함덕20길 42 ", "lat": 33.53811, "lng": 126.66677}, {"name": "클린하우스", "address": "제주특별자치도 제주시 한경면 판포2길 15", "lat": 33.36278414, "lng": 126.1996408}, {"name": "클린하우스", "address": "제주특별자치도 제주시 한경면 금등리 612-3", "lat": 33.36044375, "lng": 126.195569}, {"name": "클린하우스", "address": "제주특별자치도 제주시 한경면 두신로 118-6", "lat": 33.35294693, "lng": 126.185432}, {"name": "클린하우스", "address": "제주특별자치도 제주시 한경면 두모리 1402 ", "lat": 33.33547, "lng": 126.19659}, {"name": "클린하우스", "address": "제주특별자치도 제주시 한경면 두모리 1502 ", "lat": 33.33695, "lng": 126.19538}, {"name": "클린하우스", "address": "제주특별자치도 제주시 한경면 두모리 1270-8 ", "lat": 33.33355, "lng": 126.19775}, {"name": "클린하우스", "address": "제주특별자치도 제주시 한경면 낙수로 117", "lat": 33.32621878, "lng": 126.2273852}, {"name": "클린하우스", "address": "제주특별자치도 제주시 한경면 두신로 54", "lat": 33.34769768, "lng": 126.1827964}, {"name": "클린하우스", "address": "제주특별자치도 제주시 한경면 조수7길 55", "lat": 33.3373259, "lng": 126.2286215}, {"name": "클린하우스", "address": "제주특별자치도 제주시 한경면 저지12길 53", "lat": 33.34030759, "lng": 126.2609624}, {"name": "클린하우스", "address": "제주특별자치도 제주시 한경면 저지리 1783-2 ", "lat": 33.33301506, "lng": 126.2566438}, {"name": "클린하우스", "address": "제주특별자치도 제주시 한경면 저지리 3040", "lat": 33.31940122, "lng": 126.2705036}, {"name": "클린하우스", "address": "제주특별자치도 제주시 한경면 노을해안로 1161", "lat": 33.3091312, "lng": 126.160678}, {"name": "클린하우스", "address": "제주특별자치도 제주시 한경면 청수리 1634-1", "lat": 33.32145767, "lng": 126.2450089}, {"name": "클린하우스", "address": "제주특별자치도 제주시 한경면 연명로 8-1", "lat": 33.2925151, "lng": 126.2341516}, {"name": "클린하우스", "address": "제주특별자치도 제주시 한경면 불그못로 72", "lat": 33.29577381, "lng": 126.2177691}, {"name": "클린하우스", "address": "제주특별자치도 제주시 한경면 칠전로 148", "lat": 33.2973739, "lng": 126.1954282}, {"name": "클린하우스", "address": "제주특별자치도 제주시 한경면 고산리 1296-6 ", "lat": 33.3069138, "lng": 126.1854691}, {"name": "클린하우스", "address": "제주특별자치도 제주시 한경면 용고로 89", "lat": 33.30148528, "lng": 126.1787071}, {"name": "클린하우스", "address": "제주특별자치도 제주시 한경면 고산리 3818-1", "lat": 33.2056031, "lng": 126.1678414}, {"name": "클린하우스", "address": "제주특별자치도 제주시 한경면 주전길 96", "lat": 33.33466, "lng": 126.17533}, {"name": "클린하우스", "address": "제주특별자치도 제주시 한경면 용수리 1111-1", "lat": 33.33306, "lng": 126.17958}, {"name": "클린하우스", "address": "제주특별자치도 제주시 한경면 신창리 368-1", "lat": 33.3481278, "lng": 126.1814457}, {"name": "클린하우스", "address": "제주특별자치도 제주시 한경면 한경해안로 586", "lat": 33.34570575, "lng": 126.1810271}, {"name": "클린하우스", "address": "제주특별자치도 제주시 한경면 판포리 1600-2", "lat": 33.37045193, "lng": 126.2068144}, {"name": "클린하우스", "address": "제주특별자치도 제주시 한경면 고산리 1890-27", "lat": 33.30228569, "lng": 126.1878224}, {"name": "클린하우스", "address": "제주특별자치도 제주시 한경면 저지리 1504-6 ", "lat": 33.32782794, "lng": 126.2535985}, {"name": "클린하우스", "address": "제주특별자치도 제주시 한경면 용수리 4107-6", "lat": 33.32529, "lng": 126.16866}, {"name": "클린하우스", "address": "제주특별자치도 제주시 한경면 판포중길 33-50", "lat": 33.3585132, "lng": 126.2031665}, {"name": "클린하우스", "address": "제주특별자치도 제주시 한경면 고산리 2609-4 ", "lat": 33.307505, "lng": 126.1789298}, {"name": "클린하우스", "address": "제주특별자치도 제주시 한경면 신한로 76", "lat": 33.346497, "lng": 126.1909155}, {"name": "클린하우스", "address": "제주특별자치도 제주시 한경면 고락로 30", "lat": 33.30306726, "lng": 126.1826417}, {"name": "클린하우스", "address": "제주특별자치도 제주시 한경면 고락로 30", "lat": 33.30306726, "lng": 126.1826417}, {"name": "클린하우스", "address": "제주특별자치도 제주시 한경면 고산리 250 ", "lat": 33.29595124, "lng": 126.2046608}, {"name": "클린하우스", "address": "제주특별자치도 제주시 한경면 조수리 1302-3", "lat": 33.33588703, "lng": 126.2267783}, {"name": "클린하우스", "address": "제주특별자치도 제주시 한경면 저지리 3215-5", "lat": 33.31717188, "lng": 126.2665809}, {"name": "클린하우스", "address": "제주특별자치도 제주시 한경면 두모리 602-8 ", "lat": 33.34033664, "lng": 126.2013553}, {"name": "클린하우스", "address": "제주특별자치도 제주시 한경면 신한로 111-15", "lat": 33.34402089, "lng": 126.1931607}, {"name": "클린하우스", "address": "제주특별자치도 제주시 한경면 두모리 1308-7", "lat": 33.33424, "lng": 126.1953}, {"name": "클린하우스", "address": "제주특별자치도 제주시 한경면 금등리 179", "lat": 33.34336542, "lng": 126.21263}, {"name": "클린하우스", "address": "제주특별자치도 제주시 한경면 신창리 1326", "lat": 33.34293459, "lng": 126.1737807}, {"name": "클린하우스", "address": "제주특별자치도 제주시 한경면 고산리 1885-13", "lat": 33.30249519, "lng": 126.1861633}, {"name": "클린하우스", "address": "제주특별자치도 제주시 한경면 고산리 451", "lat": 33.30307563, "lng": 126.1982077}, {"name": "클린하우스", "address": "제주특별자치도 제주시 한경면 저지리 1197-1 ", "lat": 33.33692646, "lng": 126.2364822}, {"name": "클린하우스", "address": "제주특별자치도 제주시 한경면 판포1길 47", "lat": 33.3637622, "lng": 126.1966693}, {"name": "클린하우스", "address": "제주특별자치도 제주시 한경면 일주서로 4542", "lat": 33.36510001, "lng": 126.2010208}, {"name": "클린하우스", "address": "제주특별자치도 제주시 한경면 판포리 726", "lat": 33.3492068, "lng": 126.2173714}, {"name": "클린하우스", "address": "제주특별자치도 제주시 한경면 금등리 558 ", "lat": 33.35936391, "lng": 126.1954719}, {"name": "클린하우스", "address": "제주특별자치도 제주시 한경면 금등리 639", "lat": 33.36386692, "lng": 126.1940709}, {"name": "클린하우스", "address": "제주특별자치도 제주시 한경면 금등리 649-3", "lat": 33.36183049, "lng": 126.1899786}, {"name": "클린하우스", "address": "제주특별자치도 제주시 한경면 두모11길 56", "lat": 33.35745406, "lng": 126.1820743}, {"name": "클린하우스", "address": "제주특별자치도 제주시 한경면 두모리 2876-4", "lat": 33.3513891, "lng": 126.1839284}, {"name": "클린하우스", "address": "제주특별자치도 제주시 한경면 두모1길 25", "lat": 33.35119311, "lng": 126.1806391}, {"name": "클린하우스", "address": "제주특별자치도 제주시 한경면 성굴로 54", "lat": 33.33712665, "lng": 126.18595}, {"name": "클린하우스", "address": "제주특별자치도 제주시 한경면 신창리 233-1", "lat": 33.34981391, "lng": 126.1844657}, {"name": "클린하우스", "address": "제주특별자치도 제주시 한경면 신창리 193-2", "lat": 33.34815789, "lng": 126.1878489}, {"name": "클린하우스", "address": "제주특별자치도 제주시 한경면 두신로 72", "lat": 33.34948572, "lng": 126.1833819}, {"name": "클린하우스", "address": "제주특별자치도 제주시 한경면 용수리 3897-2", "lat": 33.33521, "lng": 126.16329}, {"name": "클린하우스", "address": "제주특별자치도 제주시 한경면 용수리 4117-3", "lat": 33.32396, "lng": 126.16635}, {"name": "클린하우스", "address": "제주특별자치도 제주시 한경면 용수리 4229-2", "lat": 33.32456, "lng": 126.16333}, {"name": "클린하우스", "address": "제주특별자치도 제주시 한경면 낙산로 150", "lat": 33.31150068, "lng": 126.2325368}, {"name": "클린하우스", "address": "제주특별자치도 제주시 한경면 낙수로 60", "lat": 33.331114, "lng": 126.2249365}, {"name": "클린하우스", "address": "제주특별자치도 제주시 한경면 불그못로 100", "lat": 33.29694133, "lng": 126.2205073}, {"name": "클린하우스", "address": "제주특별자치도 제주시 한경면 조수리 3980-4 ", "lat": 33.2942251, "lng": 126.2148925}, {"name": "클린하우스", "address": "제주특별자치도 제주시 한경면 녹차분재로 678", "lat": 33.32643108, "lng": 126.2546244}, {"name": "클린하우스", "address": "제주특별자치도 제주시 한경면 청수리 416-1 ", "lat": 33.3256486, "lng": 126.2516774}, {"name": "클린하우스", "address": "제주특별자치도 제주시 한경면 녹차분재로 462", "lat": 33.31397935, "lng": 126.2727923}, {"name": "클린하우스", "address": "제주특별자치도 제주시 한경면 저지리 1799-1", "lat": 33.33525578, "lng": 126.2567036}, {"name": "클린하우스", "address": "제주특별자치도 제주시 한경면 저지리 2114-79", "lat": 33.3399231, "lng": 126.2649693}, {"name": "클린하우스", "address": "제주특별자치도 제주시 한경면 녹차분재로 354", "lat": 33.30856627, "lng": 126.2822113}, {"name": "클린하우스", "address": "제주특별자치도 제주시 한경면 녹차분재로 594-1", "lat": 33.32246441, "lng": 126.2636568}, {"name": "클린하우스", "address": "제주특별자치도 제주시 한경면 청수리1566-5", "lat": 33.31828316, "lng": 126.2468339}, {"name": "클린하우스", "address": "제주특별자치도 제주시 한경면 청수서5길 55-1", "lat": 33.3058164, "lng": 126.2506128}, {"name": "클린하우스", "address": "제주특별자치도 제주시 한경면 청수동4길 30", "lat": 33.31979174, "lng": 126.2506091}, {"name": "클린하우스", "address": "제주특별자치도 제주시 한경면 청수리 산2-1", "lat": 33.30795615, "lng": 126.2603015}, {"name": "클린하우스", "address": "제주특별자치도 제주시 한경면 낙수로 271-40", "lat": 33.32355925, "lng": 126.2385637}, {"name": "클린하우스", "address": "제주특별자치도 제주시 한경면 청수서2길 72-15", "lat": 33.3127322, "lng": 126.2432824}, {"name": "클린하우스", "address": "제주특별자치도 제주시 한경면 고산리 3616-25", "lat": 33.30829551, "lng": 126.1641409}, {"name": "클린하우스", "address": "제주특별자치도 제주시 한경면 고산로6길 16", "lat": 33.30664379, "lng": 126.180389}, {"name": "클린하우스", "address": "제주특별자치도 제주시 한경면 용고로 70", "lat": 33.3003159, "lng": 126.1805893}, {"name": "클린하우스", "address": "제주특별자치도 제주시 한경면 고산남8길 7", "lat": 33.3019671, "lng": 126.1923209}, {"name": "클린하우스", "address": "제주특별자치도 제주시 한경면 고산남6길 21", "lat": 33.30126639, "lng": 126.1911768}, {"name": "클린하우스", "address": "제주특별자치도 제주시 한경면 고산남3길 31", "lat": 33.3048346, "lng": 126.189277}, {"name": "클린하우스", "address": "제주특별자치도 제주시 한경면 수룡2길 11", "lat": 33.30826091, "lng": 126.2397391}, {"name": "클린하우스", "address": "제주특별자치도 제주시 한경면 수룡4길 1", "lat": 33.31023625, "lng": 126.2385296}, {"name": "클린하우스", "address": "제주특별자치도 제주시 한경면 수룡2길 31", "lat": 33.3076718, "lng": 126.2412816}, {"name": "클린하우스", "address": "제주특별자치도 제주시 한경면 중산간서로 3276", "lat": 33.30284805, "lng": 126.238102}, {"name": "클린하우스", "address": "제주특별자치도 제주시 추자면 추자로 4-1", "lat": 33.9627366, "lng": 126.2975752}, {"name": "클린하우스", "address": "제주특별자치도 제주시 추자면 추자로 16-2", "lat": 33.96348567, "lng": 126.2972691}, {"name": "클린하우스", "address": "제주특별자치도 제주시 추자면 대서리 147-2", "lat": 33.9626726, "lng": 126.2954084}, {"name": "클린하우스", "address": "제주특별자치도 제주시 추자면 대서리 147-16", "lat": 33.96253665, "lng": 126.2943812}, {"name": "클린하우스", "address": "제주특별자치도 제주시 추자면 영흥1길 25", "lat": 33.96098478, "lng": 126.2955655}, {"name": "클린하우스", "address": "제주특별자치도 제주시 추자면 추자로 107", "lat": 33.9595939, "lng": 126.2971061}, {"name": "클린하우스", "address": "제주특별자치도 제주시 추자면 묵리 731-6", "lat": 33.94472798, "lng": 126.3126071}, {"name": "클린하우스", "address": "제주특별자치도 제주시 추자면 대서6길 35", "lat": 33.96142967, "lng": 126.2924222}, {"name": "클린하우스", "address": "제주특별자치도 제주시 추자면 추자로 389-10", "lat": 33.94502191, "lng": 126.3149034}, {"name": "클린하우스", "address": "제주특별자치도 제주시 추자면 신양리 841-2", "lat": 33.9408413, "lng": 126.3217772}, {"name": "클린하우스", "address": "제주특별자치도 제주시 추자면 추자로 501", "lat": 33.94040585, "lng": 126.3236587}, {"name": "클린하우스", "address": "제주특별자치도 제주시 추자면 추자로 556", "lat": 33.9445899, "lng": 126.3267572}, {"name": "클린하우스", "address": "제주특별자치도 제주시 추자면 추자로 576-2", "lat": 33.9453985, "lng": 126.3277428}, {"name": "클린하우스", "address": "제주특별자치도 제주시 추자면 신양2길 28-8", "lat": 33.9447716, "lng": 126.3297543}, {"name": "클린하우스", "address": "제주특별자치도 제주시 추자면 신양4길 18", "lat": 33.94740248, "lng": 126.3320344}, {"name": "클린하우스", "address": "제주특별자치도 제주시 추자면 예초리 200-7", "lat": 33.95556537, "lng": 126.3354303}, {"name": "클린하우스", "address": "제주특별자치도 제주시 추자면 대서리 83-1", "lat": 33.96355329, "lng": 126.2934658}, {"name": "클린하우스", "address": "제주특별자치도 제주시 추자면 묵리 134-1", "lat": 33.94113017, "lng": 126.3178063}, {"name": "클린하우스", "address": "제주특별자치도 제주시 추자면 신양리 839-1", "lat": 33.94056469, "lng": 126.3225082}, {"name": "클린하우스", "address": "제주특별자치도 제주시 우도면 우도로 163", "lat": 33.50792547, "lng": 126.9536282}, {"name": "클린하우스", "address": "제주특별자치도 제주시 우도면 우도해안길 354", "lat": 33.50980286, "lng": 126.9430561}, {"name": "클린하우스", "address": "제주특별자치도 제주시 우도면 연평리 2072-2", "lat": 33.503708, "lng": 126.946516}, {"name": "클린하우스", "address": "제주특별자치도 제주시 우도면 연평리 5-1", "lat": 33.51468, "lng": 126.96882}, {"name": "클린하우스", "address": "제주특별자치도 제주시 우도면 연평리 926", "lat": 33.51868956, "lng": 126.951843}, {"name": "클린하우스", "address": "제주특별자치도 제주시 우도면 연평리 890-2", "lat": 33.51923786, "lng": 126.9499412}, {"name": "클린하우스", "address": "제주특별자치도 제주시 우도면 우도해안길 1122", "lat": 33.49764357, "lng": 126.9684719}, {"name": "클린하우스", "address": "제주특별자치도 제주시 우도면 연평리 2650-1", "lat": 33.49453, "lng": 126.946451}, {"name": "클린하우스", "address": "제주특별자치도 제주시 우도면 연평리 1675-3", "lat": 33.494691, "lng": 126.952688}, {"name": "클린하우스", "address": "제주특별자치도 제주시 우도면 연평리 243", "lat": 33.50212696, "lng": 126.966782}, {"name": "클린하우스", "address": "제주특별자치도 제주시 우도면 연평리 2353-1", "lat": 33.51554382, "lng": 126.9493879}, {"name": "클린하우스", "address": "제주특별자치도 제주시 우도면 연평리 1604-3", "lat": 33.49677, "lng": 126.953431}, {"name": "클린하우스", "address": "제주특별자치도 제주시 우도면 연평리 208-1", "lat": 33.5026185, "lng": 126.9643322}, {"name": "클린하우스", "address": "제주특별자치도 제주시 우도면 연평리 1735-3", "lat": 33.492403, "lng": 126.952651}, {"name": "클린하우스", "address": "제주특별자치도 제주시 우도면 연평리 1830-2", "lat": 33.496346, "lng": 126.948737}, {"name": "클린하우스", "address": "제주특별자치도 제주시 우도면 우도로 156-11", "lat": 33.50582768, "lng": 126.9562285}, {"name": "클린하우스", "address": "제주특별자치도 제주시 우도면 조일길 123-5", "lat": 33.51097, "lng": 126.96023}, {"name": "클린하우스", "address": "제주특별자치도 제주시 우도면 연평리 610-5", "lat": 33.50914, "lng": 126.96262}, {"name": "클린하우스", "address": "제주특별자치도 제주시 우도면 연평리 1203-2", "lat": 33.51571, "lng": 126.95609}, {"name": "클린하우스", "address": "제주특별자치도 제주시 중앙로7길 15", "lat": 33.51487, "lng": 126.526458}, {"name": "클린하우스", "address": "제주특별자치도 제주시 만덕로6길 26", "lat": 33.513943, "lng": 126.528771}, {"name": "클린하우스", "address": "제주특별자치도 제주시 신산로2길 8", "lat": 33.512486, "lng": 126.531031}, {"name": "클린하우스", "address": "제주특별자치도 제주시 신산로2길 21", "lat": 33.512303, "lng": 126.529544}, {"name": "클린하우스", "address": "제주특별자치도 제주시 일도1동 1105-12", "lat": 33.511788, "lng": 126.528629}, {"name": "클린하우스", "address": "제주특별자치도 제주시 일도1동 1105-12", "lat": 33.511788, "lng": 126.528629}, {"name": "클린하우스", "address": "제주특별자치도 제주시 일도1동 1498", "lat": 33.50941, "lng": 126.527735}, {"name": "클린하우스", "address": "제주특별자치도 제주시 동문로6길 17-3", "lat": 33.511581, "lng": 126.529112}, {"name": "클린하우스", "address": "제주특별자치도 제주시 동문로8길 11-2", "lat": 33.511671, "lng": 126.530211}, {"name": "클린하우스", "address": "제주특별자치도 제주시 관덕로13길 12", "lat": 33.513972, "lng": 126.525982}, {"name": "클린하우스", "address": "제주특별자치도 제주시 관덕로7길 13", "lat": 33.51364489, "lng": 126.523134}, {"name": "클린하우스", "address": "제주특별자치도 제주시 중앙로8길 2 ", "lat": 33.5149, "lng": 126.524526}, {"name": "클린하우스", "address": "제주특별자치도 제주시 일도2동 1029-22", "lat": 33.509958, "lng": 126.531262}, {"name": "클린하우스", "address": "제주특별자치도 제주시 일도2동 1050-1", "lat": 33.507344, "lng": 126.528725}, {"name": "클린하우스", "address": "제주특별자치도 제주시 삼성로 51", "lat": 33.507437, "lng": 126.530939}, {"name": "클린하우스", "address": "제주특별자치도 제주시 일도2동 1032-5", "lat": 33.508393, "lng": 126.533039}, {"name": "클린하우스", "address": "제주특별자치도 제주시 신선길 20", "lat": 33.510857, "lng": 126.530827}, {"name": "클린하우스", "address": "제주특별자치도 제주시 일도2동 1006-20", "lat": 33.511584, "lng": 126.534391}, {"name": "클린하우스", "address": "제주특별자치도 제주시 동문로20길 2", "lat": 33.513365, "lng": 126.536399}, {"name": "클린하우스", "address": "제주특별자치도 제주시 일도2동 601-5", "lat": 33.51296, "lng": 126.537203}, {"name": "클린하우스", "address": "제주특별자치도 제주시 일도2동 984-3 ", "lat": 33.512151, "lng": 126.536728}, {"name": "클린하우스", "address": "제주특별자치도 제주시 삼성로13길 24", "lat": 33.510282, "lng": 126.532977}, {"name": "클린하우스", "address": "제주특별자치도 제주시 고마로 36", "lat": 33.511006, "lng": 126.538433}, {"name": "클린하우스", "address": "제주특별자치도 제주시 신산로9길 41", "lat": 33.510186, "lng": 126.537167}, {"name": "클린하우스", "address": "제주특별자치도 제주시 삼성로18길 28", "lat": 33.50987, "lng": 126.536989}, {"name": "클린하우스", "address": "제주특별자치도 제주시 신산로9길 19", "lat": 33.508713, "lng": 126.535691}, {"name": "클린하우스", "address": "제주특별자치도 제주시 일도2동 875", "lat": 33.505626, "lng": 126.535063}, {"name": "클린하우스", "address": "제주특별자치도 제주시 일도2동 337 ", "lat": 33.506737, "lng": 126.536442}, {"name": "클린하우스", "address": "제주특별자치도 제주시 일도2동 337 ", "lat": 33.507225, "lng": 126.536311}, {"name": "클린하우스", "address": "제주특별자치도 제주시 일도2동 440", "lat": 33.508138, "lng": 126.538062}, {"name": "클린하우스", "address": "제주특별자치도 제주시 일도2동 440", "lat": 33.507358, "lng": 126.538855}, {"name": "클린하우스", "address": "제주특별자치도 제주시 동문로14길 16-1", "lat": 33.512102, "lng": 126.533303}, {"name": "클린하우스", "address": "제주특별자치도 제주시 일도2동 428", "lat": 33.511485, "lng": 126.540045}, {"name": "클린하우스", "address": "제주특별자치도 제주시 동문로 124", "lat": 33.513904, "lng": 126.539587}, {"name": "클린하우스", "address": "제주특별자치도 제주시 동문로 124", "lat": 33.513904, "lng": 126.539587}, {"name": "클린하우스", "address": "제주특별자치도 제주시 동문로 146", "lat": 33.513175, "lng": 126.541985}, {"name": "클린하우스", "address": "제주특별자치도 제주시 일도2동 154 ", "lat": 33.511597, "lng": 126.541586}, {"name": "클린하우스", "address": "제주특별자치도 제주시 일도2동 154 ", "lat": 33.511602, "lng": 126.541672}, {"name": "클린하우스", "address": "제주특별자치도 제주시 고마로13길 41", "lat": 33.510975, "lng": 126.54179}, {"name": "클린하우스", "address": "제주특별자치도 제주시 동광로23길 15", "lat": 33.510876, "lng": 126.542725}, {"name": "클린하우스", "address": "제주특별자치도 제주시 일도2동 355-8 ", "lat": 33.509226, "lng": 126.540336}, {"name": "클린하우스", "address": "제주특별자치도 제주시 일도2동 355-8 ", "lat": 33.509226, "lng": 126.540336}, {"name": "클린하우스", "address": "제주특별자치도 제주시 고마로14길 16", "lat": 33.50567, "lng": 126.539433}, {"name": "클린하우스", "address": "제주특별자치도 제주시 일도2동 414", "lat": 33.504499, "lng": 126.541343}, {"name": "클린하우스", "address": "제주특별자치도 제주시 고마로 91", "lat": 33.505502, "lng": 126.541176}, {"name": "클린하우스", "address": "제주특별자치도 제주시 일도2동 397 ", "lat": 33.508659, "lng": 126.543667}, {"name": "클린하우스", "address": "제주특별자치도 제주시 일도2동 397 ", "lat": 33.508123, "lng": 126.543304}, {"name": "클린하우스", "address": "제주특별자치도 제주시 일도2동 45", "lat": 33.507268, "lng": 126.545752}, {"name": "클린하우스", "address": "제주특별자치도 제주시 일도2동 405-3", "lat": 33.506503, "lng": 126.542998}, {"name": "클린하우스", "address": "제주특별자치도 제주시 일도2동 405-3", "lat": 33.506503, "lng": 126.542998}, {"name": "클린하우스", "address": "제주특별자치도 제주시 일도2동 405-3", "lat": 33.505941, "lng": 126.543716}, {"name": "클린하우스", "address": "제주특별자치도 제주시 천수로9길 10", "lat": 33.504914, "lng": 126.542365}, {"name": "클린하우스", "address": "제주특별자치도 제주시 일도2동 511", "lat": 33.512171, "lng": 126.543968}, {"name": "클린하우스", "address": "제주특별자치도 제주시 일도2동 65 ", "lat": 33.50273, "lng": 126.54471}, {"name": "클린하우스", "address": "제주특별자치도 제주시 연수로3길 6", "lat": 33.502237, "lng": 126.543509}, {"name": "클린하우스", "address": "제주특별자치도 제주시 일도2동 65 ", "lat": 33.501792, "lng": 126.544743}, {"name": "클린하우스", "address": "제주특별자치도 제주시 일도2동 87-6 ", "lat": 33.500175, "lng": 126.546367}, {"name": "클린하우스", "address": "제주특별자치도 제주시 태성로4길 23", "lat": 33.500083, "lng": 126.547594}, {"name": "클린하우스", "address": "제주특별자치도 제주시 일도2동 88-1", "lat": 33.499806, "lng": 126.546697}, {"name": "클린하우스", "address": "제주특별자치도 제주시 일도2동 88-1 ", "lat": 33.499942, "lng": 126.546739}, {"name": "클린하우스", "address": "제주특별자치도 제주시 태성로 40", "lat": 33.499597, "lng": 126.549572}, {"name": "클린하우스", "address": "제주특별자치도 제주시 남광로 158-3", "lat": 33.499889, "lng": 126.55062}, {"name": "클린하우스", "address": "제주특별자치도 제주시 신산로 79", "lat": 33.506478, "lng": 126.535021}, {"name": "클린하우스", "address": "제주특별자치도 제주시 동문로16길 40", "lat": 33.510631, "lng": 126.535783}, {"name": "클린하우스", "address": "제주특별자치도 제주시 신산로15길 35", "lat": 33.507686, "lng": 126.536809}, {"name": "클린하우스", "address": "제주특별자치도 제주시 고마로9길 18", "lat": 33.51075, "lng": 126.541142}, {"name": "클린하우스", "address": "제주특별자치도 제주시 고마로9길 18", "lat": 33.510579, "lng": 126.540652}, {"name": "클린하우스", "address": "제주특별자치도 제주시 천수동로 24", "lat": 33.508251, "lng": 126.545071}, {"name": "클린하우스", "address": "제주특별자치도 제주시 동광로11길 5", "lat": 33.503755, "lng": 126.534318}, {"name": "클린하우스", "address": "제주특별자치도 제주시 동광로7길 16-28", "lat": 33.503963, "lng": 126.532481}, {"name": "클린하우스", "address": "제주특별자치도 제주시 동광로9길 39", "lat": 33.50454, "lng": 126.530606}, {"name": "클린하우스", "address": "제주특별자치도 제주시 동광로1길 15", "lat": 33.502187, "lng": 126.528827}, {"name": "클린하우스", "address": "제주특별자치도 제주시 광양1길 8", "lat": 33.504487, "lng": 126.527661}, {"name": "클린하우스", "address": "제주특별자치도 제주시 광양1길 34", "lat": 33.503396, "lng": 126.529419}, {"name": "클린하우스", "address": "제주특별자치도 제주시 오현길 9", "lat": 33.505885, "lng": 126.527927}, {"name": "클린하우스", "address": "제주특별자치도 제주시 중앙로25길 17", "lat": 33.506493, "lng": 126.527086}, {"name": "클린하우스", "address": "제주특별자치도 제주시 고전길 15-1", "lat": 33.507391, "lng": 126.525239}, {"name": "클린하우스", "address": "제주특별자치도 제주시 이도1동 1584", "lat": 33.507711, "lng": 126.527238}, {"name": "클린하우스", "address": "제주특별자치도 제주시 이도1동 1328-23", "lat": 33.508354, "lng": 126.527173}, {"name": "클린하우스", "address": "제주특별자치도 제주시 고전길 26", "lat": 33.508081, "lng": 126.524759}, {"name": "클린하우스", "address": "제주특별자치도 제주시 오현길 49", "lat": 33.509272, "lng": 126.526137}, {"name": "클린하우스", "address": "제주특별자치도 제주시 중앙로17길 6", "lat": 33.509302, "lng": 126.524256}, {"name": "클린하우스", "address": "제주특별자치도 제주시 오현길 67", "lat": 33.511015, "lng": 126.525624}, {"name": "클린하우스", "address": "제주특별자치도 제주시 성지로 7", "lat": 33.50988624, "lng": 126.5245158}, {"name": "클린하우스", "address": "제주특별자치도 제주시 서광로29길 38", "lat": 33.503762, "lng": 126.526009}, {"name": "클린하우스", "address": "제주특별자치도 제주시 광양2길 25", "lat": 33.502657, "lng": 126.527225}, {"name": "클린하우스", "address": "제주특별자치도 제주시 서광로29길 17", "lat": 33.501861, "lng": 126.526451}, {"name": "클린하우스", "address": "제주특별자치도 제주시 서광로27길 2", "lat": 33.5006904, "lng": 126.5251759}, {"name": "클린하우스", "address": "제주특별자치도 제주시 서광로27길 2", "lat": 33.50067998, "lng": 126.5250957}, {"name": "클린하우스", "address": "제주특별자치도 제주시 오현길 81", "lat": 33.511925, "lng": 126.524937}, {"name": "클린하우스", "address": "제주특별자치도 제주시 이도1동 1463-9", "lat": 33.510381, "lng": 126.523528}, {"name": "클린하우스", "address": "제주특별자치도 제주시 일도2동 857-3 ", "lat": 33.503165, "lng": 126.534945}, {"name": "클린하우스", "address": "제주특별자치도 제주시 동광로4길 3", "lat": 33.501154, "lng": 126.531218}, {"name": "클린하우스", "address": "제주특별자치도 제주시 동광로6길 17", "lat": 33.500595, "lng": 126.532598}, {"name": "클린하우스", "address": "제주특별자치도 제주시 광양11길 10-1", "lat": 33.499442, "lng": 126.531472}, {"name": "클린하우스", "address": "제주특별자치도 제주시 광양11길 10-1", "lat": 33.499442, "lng": 126.531472}, {"name": "클린하우스", "address": "제주특별자치도 제주시 광양11길 24", "lat": 33.499962, "lng": 126.532314}, {"name": "클린하우스", "address": "제주특별자치도 제주시 이도2동 1046", "lat": 33.498686, "lng": 126.536289}, {"name": "클린하우스", "address": "제주특별자치도 제주시 이도2동 1046", "lat": 33.498686, "lng": 126.536289}, {"name": "클린하우스", "address": "제주특별자치도 제주시 고산동산5길 24", "lat": 33.4966, "lng": 126.535132}, {"name": "클린하우스", "address": "제주특별자치도 제주시 가령로4길 11", "lat": 33.497255, "lng": 126.534153}, {"name": "클린하우스", "address": "제주특별자치도 제주시 고산동산3길 24", "lat": 33.497997, "lng": 126.53332}, {"name": "클린하우스", "address": "제주특별자치도 제주시 신성로14길 19", "lat": 33.495733, "lng": 126.531685}, {"name": "클린하우스", "address": "제주특별자치도 제주시 신성로10길 37", "lat": 33.493536, "lng": 126.53056}, {"name": "클린하우스", "address": "제주특별자치도 제주시 신성로10길 37", "lat": 33.49352, "lng": 126.530633}, {"name": "클린하우스", "address": "제주특별자치도 제주시 신성로12길 17", "lat": 33.495788, "lng": 126.531197}, {"name": "클린하우스", "address": "제주특별자치도 제주시 도남로13길 4", "lat": 33.492814, "lng": 126.528532}, {"name": "클린하우스", "address": "제주특별자치도 제주시 신설동길 17", "lat": 33.497146, "lng": 126.548133}, {"name": "클린하우스", "address": "제주특별자치도 제주시 가령골1길 5 ", "lat": 33.503295, "lng": 126.537703}, {"name": "클린하우스", "address": "제주특별자치도 제주시 청귤로 15 ", "lat": 33.499796, "lng": 126.538016}, {"name": "클린하우스", "address": "제주특별자치도 제주시 청귤로7길 2", "lat": 33.498764, "lng": 126.539144}, {"name": "클린하우스", "address": "제주특별자치도 제주시 천수로 33", "lat": 33.502984, "lng": 126.541}, {"name": "클린하우스", "address": "제주특별자치도 제주시 청귤로1길 40", "lat": 33.501901, "lng": 126.539115}, {"name": "클린하우스", "address": "제주특별자치도 제주시 이도2동 363", "lat": 33.501285, "lng": 126.536932}, {"name": "클린하우스", "address": "제주특별자치도 제주시 이도2동 363", "lat": 33.501237, "lng": 126.536938}, {"name": "클린하우스", "address": "제주특별자치도 제주시 이도공원길 44-21", "lat": 33.497349, "lng": 126.545036}, {"name": "클린하우스", "address": "제주특별자치도 제주시 이도공원길 37", "lat": 33.498025, "lng": 126.544096}, {"name": "클린하우스", "address": "제주특별자치도 제주시 정든로1길 18", "lat": 33.499101, "lng": 126.541511}, {"name": "클린하우스", "address": "제주특별자치도 제주시 이도2동 404", "lat": 33.497276, "lng": 126.541046}, {"name": "클린하우스", "address": "제주특별자치도 제주시 이도2동 404", "lat": 33.497276, "lng": 126.541046}, {"name": "클린하우스", "address": "제주특별자치도 제주시 정든로3길 9", "lat": 33.497562, "lng": 126.541552}, {"name": "클린하우스", "address": "제주특별자치도 제주시 정든로3길 28", "lat": 33.499267, "lng": 126.541828}, {"name": "클린하우스", "address": "제주특별자치도 제주시 정든로 61 ", "lat": 33.49924, "lng": 126.544102}, {"name": "클린하우스", "address": "제주특별자치도 제주시 신설동길 100", "lat": 33.491058, "lng": 126.551489}, {"name": "클린하우스", "address": "제주특별자치도 제주시 신설동길 82 ", "lat": 33.49203, "lng": 126.551081}, {"name": "클린하우스", "address": "제주특별자치도 제주시 신설로5길 38", "lat": 33.495664, "lng": 126.546932}, {"name": "클린하우스", "address": "제주특별자치도 제주시 이도2동 1954-4", "lat": 33.494189, "lng": 126.546989}, {"name": "클린하우스", "address": "제주특별자치도 제주시 이도2동 1960-3", "lat": 33.493903, "lng": 126.545411}, {"name": "클린하우스", "address": "제주특별자치도 제주시 이도2동 1960-3", "lat": 33.493903, "lng": 126.545411}, {"name": "클린하우스", "address": "제주특별자치도 제주시 신설동길 66 ", "lat": 33.49364, "lng": 126.550291}, {"name": "클린하우스", "address": "제주특별자치도 제주시 승천로 22", "lat": 33.495926, "lng": 126.539365}, {"name": "클린하우스", "address": "제주특별자치도 제주시 오복2길 27", "lat": 33.49358, "lng": 126.536598}, {"name": "클린하우스", "address": "제주특별자치도 제주시 오복2길 27", "lat": 33.494135, "lng": 126.537214}, {"name": "클린하우스", "address": "제주특별자치도 제주시 남광북3길 18-15", "lat": 33.494135, "lng": 126.537214}, {"name": "클린하우스", "address": "제주특별자치도 제주시 이도2동 1064", "lat": 33.495924, "lng": 126.535667}, {"name": "클린하우스", "address": "제주특별자치도 제주시 남광로2길 7-15", "lat": 33.492613, "lng": 126.538611}, {"name": "클린하우스", "address": "제주특별자치도 제주시 남광로2길 7", "lat": 33.491623, "lng": 126.537673}, {"name": "클린하우스", "address": "제주특별자치도 제주시 남광로2길 48", "lat": 33.488969, "lng": 126.540115}, {"name": "클린하우스", "address": "제주특별자치도 제주시 남광로2길 48", "lat": 33.488969, "lng": 126.540115}, {"name": "클린하우스", "address": "제주특별자치도 제주시 남광로2길 49-27", "lat": 33.490535, "lng": 126.542955}, {"name": "클린하우스", "address": "제주특별자치도 제주시 남광로2길 49-27", "lat": 33.490535, "lng": 126.542955}, {"name": "클린하우스", "address": "제주특별자치도 제주시 남광로4길 33", "lat": 33.49106, "lng": 126.540715}, {"name": "클린하우스", "address": "제주특별자치도 제주시 신설로 16 ", "lat": 33.494289, "lng": 126.54333}, {"name": "클린하우스", "address": "제주특별자치도 제주시 신설로2길 9", "lat": 33.494517, "lng": 126.542137}, {"name": "클린하우스", "address": "제주특별자치도 제주시 신설로6길 2-11", "lat": 33.492601, "lng": 126.54313}, {"name": "클린하우스", "address": "제주특별자치도 제주시 구남로6길 55-1 ", "lat": 33.486318, "lng": 126.537495}, {"name": "클린하우스", "address": "제주특별자치도 제주시 구남로6길 55-1 ", "lat": 33.486281, "lng": 126.537366}, {"name": "클린하우스", "address": "제주특별자치도 제주시 구남동6길 31", "lat": 33.488084, "lng": 126.53644}, {"name": "클린하우스", "address": "제주특별자치도 제주시 구남동2길 45-6", "lat": 33.488238, "lng": 126.533994}, {"name": "클린하우스", "address": "제주특별자치도 제주시 구남로2길 36", "lat": 33.486951, "lng": 126.534915}, {"name": "클린하우스", "address": "제주특별자치도 제주시 구남로2길 36", "lat": 33.486686, "lng": 126.534776}, {"name": "클린하우스", "address": "제주특별자치도 제주시 구남동2길 51-3", "lat": 33.487373, "lng": 126.533564}, {"name": "클린하우스", "address": "제주특별자치도 제주시 구남동2길 51-3", "lat": 33.487352, "lng": 126.533679}, {"name": "클린하우스", "address": "제주특별자치도 제주시 구남로2길 8", "lat": 33.488613, "lng": 126.532892}, {"name": "클린하우스", "address": "제주특별자치도 제주시 이도2동 1998-9", "lat": 33.490245, "lng": 126.535115}, {"name": "클린하우스", "address": "제주특별자치도 제주시 이도2동 1999-1", "lat": 33.490512, "lng": 126.536431}, {"name": "클린하우스", "address": "제주특별자치도 제주시 이도2동 1999-1", "lat": 33.490521, "lng": 126.536454}, {"name": "클린하우스", "address": "제주특별자치도 제주시 구남동6길 6", "lat": 33.488555, "lng": 126.538491}, {"name": "클린하우스", "address": "제주특별자치도 제주시 구남동6길 6", "lat": 33.488555, "lng": 126.538491}, {"name": "클린하우스", "address": "제주특별자치도 제주시 독짓골8길 57", "lat": 33.490027, "lng": 126.531244}, {"name": "클린하우스", "address": "제주특별자치도 제주시 독짓골8길 67", "lat": 33.488749, "lng": 126.530413}, {"name": "클린하우스", "address": "제주특별자치도 제주시 도남로17길 7", "lat": 33.490508, "lng": 126.530137}, {"name": "클린하우스", "address": "제주특별자치도 제주시 도남로17길 7", "lat": 33.490508, "lng": 126.530137}, {"name": "클린하우스", "address": "제주특별자치도 제주시 구남로7길 42-1", "lat": 33.491726, "lng": 126.535117}, {"name": "클린하우스", "address": "제주특별자치도 제주시 구남로7길 13", "lat": 33.49378, "lng": 126.5335}, {"name": "클린하우스", "address": "제주특별자치도 제주시 구남로7길 4", "lat": 33.493791, "lng": 126.532658}, {"name": "클린하우스", "address": "제주특별자치도 제주시 도남동 65-3", "lat": 33.491522, "lng": 126.528439}, {"name": "클린하우스", "address": "제주특별자치도 제주시 도남동 664-6", "lat": 33.490494, "lng": 126.527389}, {"name": "클린하우스", "address": "제주특별자치도 제주시 복지로3길 11-9", "lat": 33.488401, "lng": 126.523716}, {"name": "클린하우스", "address": "제주특별자치도 제주시 복지로3길 16-1", "lat": 33.488162, "lng": 126.52237}, {"name": "클린하우스", "address": "제주특별자치도 제주시 복지로7길 4", "lat": 33.488758, "lng": 126.525852}, {"name": "클린하우스", "address": "제주특별자치도 제주시 청사로1길 18-4", "lat": 33.490623, "lng": 126.519956}, {"name": "클린하우스", "address": "제주특별자치도 제주시 복지로9길 28-2", "lat": 33.488883, "lng": 126.527625}, {"name": "클린하우스", "address": "제주특별자치도 제주시 원남6길 42", "lat": 33.485703, "lng": 126.52988}, {"name": "클린하우스", "address": "제주특별자치도 제주시 신성로2길 17", "lat": 33.495609, "lng": 126.523465}, {"name": "클린하우스", "address": "제주특별자치도 제주시 도남로8길 19-2 ", "lat": 33.49342, "lng": 126.52685}, {"name": "클린하우스", "address": "제주특별자치도 제주시 도남로10길 1-5", "lat": 33.49335, "lng": 126.527592}, {"name": "클린하우스", "address": "제주특별자치도 제주시 도남동 55", "lat": 33.494016, "lng": 126.526802}, {"name": "클린하우스", "address": "제주특별자치도 제주시 신성로4길 37", "lat": 33.494016, "lng": 126.522274}, {"name": "클린하우스", "address": "제주특별자치도 제주시 도남로10길 35-4", "lat": 33.494523, "lng": 126.523993}, {"name": "클린하우스", "address": "제주특별자치도 제주시 신성로2길 17", "lat": 33.486686, "lng": 126.534776}, {"name": "클린하우스", "address": "제주특별자치도 제주시 신성로 14 ", "lat": 33.495929, "lng": 126.521304}, {"name": "클린하우스", "address": "제주특별자치도 제주시 서광로18길 23 ", "lat": 33.497799, "lng": 126.520886}, {"name": "클린하우스", "address": "제주특별자치도 제주시 서광로22길 31", "lat": 33.497799, "lng": 126.520886}, {"name": "클린하우스", "address": "제주특별자치도 제주시 도남로3길 3-2", "lat": 33.498096, "lng": 126.526232}, {"name": "클린하우스", "address": "제주특별자치도 제주시 서광로 272", "lat": 33.499461, "lng": 126.525945}, {"name": "클린하우스", "address": "제주특별자치도 제주시 서광로 274", "lat": 33.49987694, "lng": 126.5257577}, {"name": "클린하우스", "address": "제주특별자치도 제주시 도남로4길 6-1", "lat": 33.497405, "lng": 126.525386}, {"name": "클린하우스", "address": "제주특별자치도 제주시 서광로26길 38-1", "lat": 33.497799, "lng": 126.520886}, {"name": "클린하우스", "address": "제주특별자치도 제주시 복지로북길 2-20", "lat": 33.488033, "lng": 126.521348}, {"name": "클린하우스", "address": "제주특별자치도 제주시 독짓골2길 25", "lat": 33.4902453, "lng": 126.5304394}, {"name": "클린하우스", "address": "제주특별자치도 제주시 청귤로3길 44", "lat": 33.501461, "lng": 126.541249}, {"name": "클린하우스", "address": "제주특별자치도 제주시 이도2동 1927-5", "lat": 33.487836, "lng": 126.530451}, {"name": "클린하우스", "address": "제주특별자치도 제주시 남광북1길 8", "lat": 33.495045, "lng": 126.535185}, {"name": "클린하우스", "address": "제주특별자치도 제주시 연북로 398", "lat": 33.480389, "lng": 126.523882}, {"name": "클린하우스", "address": "제주특별자치도 제주시 서사로24길 6", "lat": 33.498348, "lng": 126.519102}, {"name": "클린하우스", "address": "제주특별자치도 제주시 서사로24길 24 ", "lat": 33.498396, "lng": 126.517638}, {"name": "클린하우스", "address": "제주특별자치도 제주시 삼오길 9", "lat": 33.499445, "lng": 126.517166}, {"name": "클린하우스", "address": "제주특별자치도 제주시 삼오길 24 ", "lat": 33.499285, "lng": 126.51906}, {"name": "클린하우스", "address": "제주특별자치도 제주시 서사로21길 15 ", "lat": 33.498731, "lng": 126.521526}, {"name": "클린하우스", "address": "제주특별자치도 제주시 서광로20길 4 ", "lat": 33.49906, "lng": 126.521972}, {"name": "클린하우스", "address": "제주특별자치도 제주시 서사로 126 ", "lat": 33.501291, "lng": 126.519673}, {"name": "클린하우스", "address": "제주특별자치도 제주시 삼도1동 505 ", "lat": 33.50126, "lng": 126.5156}, {"name": "클린하우스", "address": "제주특별자치도 제주시 평전3길 4 ", "lat": 33.501633, "lng": 126.518748}, {"name": "클린하우스", "address": "제주특별자치도 제주시 서광로13길 2", "lat": 33.500476, "lng": 126.517921}, {"name": "클린하우스", "address": "제주특별자치도 제주시 삼도1동 499-3 ", "lat": 33.503105, "lng": 126.514471}, {"name": "클린하우스", "address": "제주특별자치도 제주시 서사로14길 16", "lat": 33.503655, "lng": 126.518478}, {"name": "클린하우스", "address": "제주특별자치도 제주시 서광로27길 21 ", "lat": 33.501476, "lng": 126.524547}, {"name": "클린하우스", "address": "제주특별자치도 제주시 삼도1동 547-11 ", "lat": 33.501969, "lng": 126.521898}, {"name": "클린하우스", "address": "제주특별자치도 제주시 서사로 115 ", "lat": 33.502044, "lng": 126.520077}, {"name": "클린하우스", "address": "제주특별자치도 제주시 서사로15길 27 ", "lat": 33.50263, "lng": 126.522997}, {"name": "클린하우스", "address": "제주특별자치도 제주시 홍랑길 43 ", "lat": 33.503677, "lng": 126.523126}, {"name": "클린하우스", "address": "제주특별자치도 제주시 전농로 88 ", "lat": 33.503886, "lng": 126.521847}, {"name": "클린하우스", "address": "제주특별자치도 제주시 서사로 84 ", "lat": 33.505094, "lng": 126.519285}, {"name": "클린하우스", "address": "제주특별자치도 제주시 서사로12길 49 ", "lat": 33.505456, "lng": 126.514731}, {"name": "클린하우스", "address": "제주특별자치도 제주시 삼도1동 785-1 ", "lat": 33.506307, "lng": 126.519141}, {"name": "클린하우스", "address": "제주특별자치도 제주시 전농로1길 50 ", "lat": 33.507994, "lng": 126.517009}, {"name": "클린하우스", "address": "제주특별자치도 제주시 충효길 41 ", "lat": 33.508032, "lng": 126.519287}, {"name": "클린하우스", "address": "제주특별자치도 제주시 서사로 28 ", "lat": 33.510152, "lng": 126.51957}, {"name": "클린하우스", "address": "제주특별자치도 제주시 전농로9길 7", "lat": 33.505095, "lng": 126.520398}, {"name": "클린하우스", "address": "제주특별자치도 제주시 전농로11길 10", "lat": 33.505292, "lng": 126.521838}, {"name": "클린하우스", "address": "제주특별자치도 제주시 중앙로26길 25", "lat": 33.505323, "lng": 126.523181}, {"name": "클린하우스", "address": "제주특별자치도 제주시 남성로26길 26", "lat": 33.507428, "lng": 126.523825}, {"name": "클린하우스", "address": "제주특별자치도 제주시 남성로22길 44", "lat": 33.506158, "lng": 126.522282}, {"name": "클린하우스", "address": "제주특별자치도 제주시 전농로9길 27", "lat": 33.507278, "lng": 126.520551}, {"name": "클린하우스", "address": "제주특별자치도 제주시 전농로9길 27", "lat": 33.50726, "lng": 126.520576}, {"name": "클린하우스", "address": "제주특별자치도 제주시 남성로22길 28", "lat": 33.507387, "lng": 126.522836}, {"name": "클린하우스", "address": "제주특별자치도 제주시 남성로26길 12", "lat": 33.50853, "lng": 126.523203}, {"name": "클린하우스", "address": "제주특별자치도 제주시 남성로 154-6", "lat": 33.508791, "lng": 126.521727}, {"name": "클린하우스", "address": "제주특별자치도 제주시 남성로22길 2", "lat": 33.509104, "lng": 126.520979}, {"name": "클린하우스", "address": "제주특별자치도 제주시 남성로23길 15", "lat": 33.510405, "lng": 126.52188}, {"name": "클린하우스", "address": "제주특별자치도 제주시 남성로 143-19", "lat": 33.510294, "lng": 126.520427}, {"name": "클린하우스", "address": "제주특별자치도 제주시 삼도2동 839", "lat": 33.512192, "lng": 126.520225}, {"name": "클린하우스", "address": "제주특별자치도 제주시 관덕로4길 9", "lat": 33.512229, "lng": 126.521369}, {"name": "클린하우스", "address": "제주특별자치도 제주시 관덕로6길 11", "lat": 33.512218, "lng": 126.522055}, {"name": "클린하우스", "address": "제주특별자치도 제주시 중앙로12길 14", "lat": 33.51223, "lng": 126.523371}, {"name": "클린하우스", "address": "제주특별자치도 제주시 중앙로12길 14", "lat": 33.51224, "lng": 126.523341}, {"name": "클린하우스", "address": "제주특별자치도 제주시 관덕로7길 13", "lat": 33.51467, "lng": 126.522826}, {"name": "클린하우스", "address": "제주특별자치도 제주시 관덕로3길 13-1", "lat": 33.514337, "lng": 126.521441}, {"name": "클린하우스", "address": "제주특별자치도 제주시 무근성3길 3", "lat": 33.513541, "lng": 126.518446}, {"name": "클린하우스", "address": "제주특별자치도 제주시 무근성길 40", "lat": 33.514598, "lng": 126.519848}, {"name": "클린하우스", "address": "제주특별자치도 제주시 삼도2동 1138-1", "lat": 33.514645, "lng": 126.519044}, {"name": "클린하우스", "address": "제주특별자치도 제주시 탑동로9길 18", "lat": 33.516656, "lng": 126.517805}, {"name": "클린하우스", "address": "제주특별자치도 제주시 탑동로9길 7", "lat": 33.517625, "lng": 126.517737}, {"name": "클린하우스", "address": "제주특별자치도 제주시 탑동로3길 8", "lat": 33.516714, "lng": 126.521954}, {"name": "클린하우스", "address": "제주특별자치도 제주시 삼도2동 1113-5", "lat": 33.516104, "lng": 126.522021}, {"name": "클린하우스", "address": "제주특별자치도 제주시 탑동해안로 66", "lat": 33.51815913, "lng": 126.5218833}, {"name": "클린하우스", "address": "제주특별자치도 제주시 삼도2동 1158-33", "lat": 33.515363, "lng": 126.518165}, {"name": "클린하우스", "address": "제주특별자치도 제주시 중앙로28길 8", "lat": 33.50491326, "lng": 126.5250242}, {"name": "클린하우스", "address": "제주특별자치도 제주시 동한두기길 19", "lat": 33.51667, "lng": 126.515868}, {"name": "클린하우스", "address": "제주특별자치도 제주시 용담1동 21-1", "lat": 33.513939, "lng": 126.517911}, {"name": "클린하우스", "address": "제주특별자치도 제주시 서문로5길 14", "lat": 33.512866, "lng": 126.5169}, {"name": "클린하우스", "address": "제주특별자치도 제주시 용담1동 98", "lat": 33.512189, "lng": 126.51773}, {"name": "클린하우스", "address": "제주특별자치도 제주시 서문로 55", "lat": 33.511566, "lng": 126.517169}, {"name": "클린하우스", "address": "제주특별자치도 제주시 서문로 47", "lat": 33.51089041, "lng": 126.5153263}, {"name": "클린하우스", "address": "제주특별자치도 제주시 용담1동 331", "lat": 33.512859, "lng": 126.515445}, {"name": "클린하우스", "address": "제주특별자치도 제주시 용담1동 142-1", "lat": 33.511299, "lng": 126.518465}, {"name": "클린하우스", "address": "제주특별자치도 제주시 서문로4길 16-7", "lat": 33.51035, "lng": 126.517519}, {"name": "클린하우스", "address": "제주특별자치도 제주시 용담1동 137-110", "lat": 33.510976, "lng": 126.516754}, {"name": "클린하우스", "address": "제주특별자치도 제주시 서문로2길 4", "lat": 33.510589, "lng": 126.515945}, {"name": "클린하우스", "address": "제주특별자치도 제주시 용담1동 220-11", "lat": 33.509391, "lng": 126.516175}, {"name": "클린하우스", "address": "제주특별자치도 제주시 용담로17길 2", "lat": 33.509911, "lng": 126.515173}, {"name": "클린하우스", "address": "제주특별자치도 제주시 용한로 12", "lat": 33.510232, "lng": 126.512346}, {"name": "클린하우스", "address": "제주특별자치도 제주시 용담1동 242-6", "lat": 33.509601, "lng": 126.514097}, {"name": "클린하우스", "address": "제주특별자치도 제주시 남성로11길 25", "lat": 33.507278, "lng": 126.512337}, {"name": "클린하우스", "address": "제주특별자치도 제주시 남성로9길 48", "lat": 33.508169, "lng": 126.511926}, {"name": "클린하우스", "address": "제주특별자치도 제주시 남성로9길 20", "lat": 33.506104, "lng": 126.511853}, {"name": "클린하우스", "address": "제주특별자치도 제주시 용담1동 251-24", "lat": 33.505476, "lng": 126.514687}, {"name": "클린하우스", "address": "제주특별자치도 제주시 남성로9길 7", "lat": 33.504956, "lng": 126.512092}, {"name": "클린하우스", "address": "제주특별자치도 제주시 전농로 7", "lat": 33.504766, "lng": 126.514208}, {"name": "클린하우스", "address": "제주특별자치도 제주시 남성로3길 9", "lat": 33.502097, "lng": 126.511902}, {"name": "클린하우스", "address": "제주특별자치도 제주시 서광로 149", "lat": 33.500455, "lng": 126.512202}, {"name": "클린하우스", "address": "제주특별자치도 제주시 용담2동 454-2", "lat": 33.515103, "lng": 126.513731}, {"name": "클린하우스", "address": "제주특별자치도 제주시 용두암길 58", "lat": 33.51243, "lng": 126.513863}, {"name": "클린하우스", "address": "제주특별자치도 제주시 흥운길 55-9 ", "lat": 33.514094, "lng": 126.512078}, {"name": "클린하우스", "address": "제주특별자치도 제주시 성화로6길 50", "lat": 33.511315, "lng": 126.510598}, {"name": "클린하우스", "address": "제주특별자치도 제주시 용화로 37", "lat": 33.509909, "lng": 126.507651}, {"name": "클린하우스", "address": "제주특별자치도 제주시 성화로1길 5", "lat": 33.510433, "lng": 126.504261}, {"name": "클린하우스", "address": "제주특별자치도 제주시 용화로9길 14", "lat": 33.510806, "lng": 126.507981}, {"name": "클린하우스", "address": "제주특별자치도 제주시 용화로5길 24", "lat": 33.51222, "lng": 126.506694}, {"name": "클린하우스", "address": "제주특별자치도 제주시 용해로 65", "lat": 33.511333, "lng": 126.503205}, {"name": "클린하우스", "address": "제주특별자치도 제주시 용마로 1", "lat": 33.513299, "lng": 126.505741}, {"name": "클린하우스", "address": "제주특별자치도 제주시 용마로2길 36", "lat": 33.514321, "lng": 126.507931}, {"name": "클린하우스", "address": "제주특별자치도 제주시 용마로3길 11", "lat": 33.514982, "lng": 126.506102}, {"name": "클린하우스", "address": "제주특별자치도 제주시 용마서2길 13", "lat": 33.514635, "lng": 126.504339}, {"name": "클린하우스", "address": "제주특별자치도 제주시 용마서1길 27", "lat": 33.515694, "lng": 126.504993}, {"name": "클린하우스", "address": "제주특별자치도 제주시 용담3동 1071", "lat": 33.518037, "lng": 126.499618}, {"name": "클린하우스", "address": "제주특별자치도 제주시 용담3동 1071", "lat": 33.51804, "lng": 126.499602}, {"name": "클린하우스", "address": "제주특별자치도 제주시 서해안로 456-12", "lat": 33.518481, "lng": 126.488924}, {"name": "클린하우스", "address": "제주특별자치도 제주시 용문로 158-3", "lat": 33.508572, "lng": 126.51081}, {"name": "클린하우스", "address": "제주특별자치도 제주시 용문로18길 27", "lat": 33.505868, "lng": 126.510513}, {"name": "클린하우스", "address": "제주특별자치도 제주시 용원1길 18", "lat": 33.504744, "lng": 126.510038}, {"name": "클린하우스", "address": "제주특별자치도 제주시 용문로18길 53", "lat": 33.503563, "lng": 126.510418}, {"name": "클린하우스", "address": "제주특별자치도 제주시 한천로 37", "lat": 33.502255, "lng": 126.509444}, {"name": "클린하우스", "address": "제주특별자치도 제주시 용원길 19", "lat": 33.503415, "lng": 126.508161}, {"name": "클린하우스", "address": "제주특별자치도 제주시 한천로 22", "lat": 33.501378, "lng": 126.508065}, {"name": "클린하우스", "address": "제주특별자치도 제주시 월성로4길 54", "lat": 33.501695, "lng": 126.505018}, {"name": "클린하우스", "address": "제주특별자치도 제주시 명신3길 5", "lat": 33.499572, "lng": 126.502422}, {"name": "클린하우스", "address": "제주특별자치도 제주시 월성로4길 54", "lat": 33.499708, "lng": 126.500609}, {"name": "클린하우스", "address": "제주특별자치도 제주시 월성로4길 16", "lat": 33.502063, "lng": 126.503617}, {"name": "클린하우스", "address": "제주특별자치도 제주시 월성로2길 3", "lat": 33.503497, "lng": 126.50413}, {"name": "클린하우스", "address": "제주특별자치도 제주시 용해로 147", "lat": 33.504815, "lng": 126.506858}, {"name": "클린하우스", "address": "제주특별자치도 제주시 용문로17길 6", "lat": 33.507771, "lng": 126.509075}, {"name": "클린하우스", "address": "제주특별자치도 제주시 용문로17길 25", "lat": 33.508572, "lng": 126.505979}, {"name": "클린하우스", "address": "제주특별자치도 제주시 용담로1길 33", "lat": 33.516083, "lng": 126.507176}, {"name": "클린하우스", "address": "제주특별자치도 제주시 용화로10길 8", "lat": 33.480389, "lng": 126.523882}, {"name": "클린하우스", "address": "제주특별자치도 제주시 용문로 157", "lat": 33.508745, "lng": 126.509656}, {"name": "클린하우스", "address": "제주특별자치도 제주시 용화로 6-9", "lat": 33.509366, "lng": 126.503904}, {"name": "클린하우스", "address": "제주특별자치도 제주시 용문로 88", "lat": 33.5033, "lng": 126.504959}, {"name": "클린하우스", "address": "제주특별자치도 제주시 용담3동 2284-1", "lat": 33.518949, "lng": 126.494629}, {"name": "클린하우스", "address": "제주특별자치도 제주시 용한로 3", "lat": 33.509838, "lng": 126.511713}, {"name": "클린하우스", "address": "제주특별자치도 제주시 서해안로 687-1", "lat": 33.515709, "lng": 126.512324}, {"name": "클린하우스", "address": "제주특별자치도 제주시 용담로 58", "lat": 33.512831, "lng": 126.508884}, {"name": "클린하우스", "address": "제주특별자치도 제주시 용화로5길 7", "lat": 33.510381, "lng": 126.50626}, {"name": "클린하우스", "address": "제주특별자치도 제주시 서해안로 660", "lat": 33.516296, "lng": 126.508032}, {"name": "클린하우스", "address": "제주특별자치도 제주시 공항로1길 48", "lat": 33.504045, "lng": 126.500766}, {"name": "클린하우스", "address": "제주특별자치도 제주시 임항로 8", "lat": 33.51645, "lng": 126.52539}, {"name": "클린하우스", "address": "제주특별자치도 제주시 중앙로1길 33", "lat": 33.51627, "lng": 126.52837}, {"name": "클린하우스", "address": "제주특별자치도 제주시 서부두길 2", "lat": 33.5167901, "lng": 126.5278708}, {"name": "클린하우스", "address": "제주특별자치도 제주시 임항로 85", "lat": 33.51777778, "lng": 126.5327778}, {"name": "클린하우스", "address": "제주특별자치도 제주시 임항로 287", "lat": 33.51527778, "lng": 126.5386111}, {"name": "클린하우스", "address": "제주특별자치도 제주시 만덕로4길 10-1", "lat": 33.51611111, "lng": 131.2661111}, {"name": "클린하우스", "address": "제주특별자치도 제주시 만덕로3길 2", "lat": 33.5148021, "lng": 126.5321629}, {"name": "클린하우스", "address": "제주특별자치도 제주시 만덕로3길 19", "lat": 33.51583333, "lng": 126.5330556}, {"name": "클린하우스", "address": "제주특별자치도 제주시 연무정동2길 13", "lat": 33.51472222, "lng": 126.5336111}, {"name": "클린하우스", "address": "제주특별자치도 제주시 연무정동길 19", "lat": 33.5149885, "lng": 126.5343738}, {"name": "클린하우스", "address": "제주특별자치도 제주시 연무정길 32", "lat": 33.51638889, "lng": 126.5352778}, {"name": "클린하우스", "address": "제주특별자치도 제주시 사라봉9길 21", "lat": 33.51638889, "lng": 126.5391667}, {"name": "클린하우스", "address": "제주특별자치도 제주시 칠머리길 15-1", "lat": 33.51833333, "lng": 126.5355556}, {"name": "클린하우스", "address": "제주특별자치도 제주시 연무정길 5", "lat": 33.51694444, "lng": 126.5377778}, {"name": "클린하우스", "address": "제주특별자치도 제주시 동문로 95", "lat": 33.51444444, "lng": 126.5369444}, {"name": "클린하우스", "address": "제주특별자치도 제주시 임항로 286", "lat": 33.51555556, "lng": 126.5386111}, {"name": "클린하우스", "address": "제주특별자치도 제주시 동대북길 1", "lat": 33.51777778, "lng": 126.5386111}, {"name": "클린하우스", "address": "제주특별자치도 제주시 사라봉7길 5", "lat": 33.5175646, "lng": 126.539897}, {"name": "클린하우스", "address": "제주특별자치도 제주시 임항로 235", "lat": 33.51833333, "lng": 126.5408333}, {"name": "클린하우스", "address": "제주특별자치도 제주시 사라봉7길 14", "lat": 33.51694444, "lng": 126.54}, {"name": "클린하우스", "address": "제주특별자치도 제주시 사라봉1길 50", "lat": 33.51444444, "lng": 126.5416667}, {"name": "클린하우스", "address": "제주특별자치도 제주시 사라봉1길 42", "lat": 33.5151167, "lng": 126.541191}, {"name": "클린하우스", "address": "제주특별자치도 제주시 건화길 26", "lat": 33.480389, "lng": 126.523882}, {"name": "클린하우스", "address": "제주특별자치도 제주시 임항로 146", "lat": 33.480389, "lng": 126.523882}, {"name": "클린하우스", "address": "제주특별자치도 제주시 임항로 242", "lat": 33.51833333, "lng": 126.5397222}, {"name": "클린하우스", "address": "제주특별자치도 제주시 화북1동 1594-1", "lat": 33.524696, "lng": 126.567286}, {"name": "클린하우스", "address": "제주특별자치도 제주시 화북1동 1946-9", "lat": 33.52234239, "lng": 126.566548}, {"name": "클린하우스", "address": "제주특별자치도 제주시 화북1동 1936-7", "lat": 33.523246, "lng": 126.566222}, {"name": "클린하우스", "address": "제주특별자치도 제주시 진남로 49", "lat": 33.523315, "lng": 126.565294}, {"name": "클린하우스", "address": "제주특별자치도 제주시 금산5길 24-3", "lat": 33.525136, "lng": 126.564421}, {"name": "클린하우스", "address": "제주특별자치도 제주시 금산5길 41", "lat": 33.526102, "lng": 126.564064}, {"name": "클린하우스", "address": "제주특별자치도 제주시 화북1동 4059-2", "lat": 33.524095, "lng": 126.563303}, {"name": "클린하우스", "address": "제주특별자치도 제주시 화북2동 5717-6", "lat": 33.486937, "lng": 126.560648}, {"name": "클린하우스", "address": "제주특별자치도 제주시 화북1동 4129-4", "lat": 33.522724, "lng": 126.56175}, {"name": "클린하우스", "address": "제주특별자치도 제주시 진남로8길 2", "lat": 33.51951565, "lng": 126.5675104}, {"name": "클린하우스", "address": "제주특별자치도 제주시 화북1동 1951-5", "lat": 33.52193014, "lng": 126.5654167}, {"name": "클린하우스", "address": "제주특별자치도 제주시 곤을길 23", "lat": 33.522846, "lng": 126.559799}, {"name": "클린하우스", "address": "제주특별자치도 제주시 화북1동 1976-3", "lat": 33.52059334, "lng": 126.5650531}, {"name": "클린하우스", "address": "제주특별자치도 제주시 화북1동 1984-2", "lat": 33.519337, "lng": 126.5645391}, {"name": "클린하우스", "address": "제주특별자치도 제주시 진동로5길 9", "lat": 33.5211655, "lng": 126.5643818}, {"name": "클린하우스", "address": "제주특별자치도 제주시 화북1동 1955-15", "lat": 33.520999, "lng": 126.563054}, {"name": "클린하우스", "address": "제주특별자치도 제주시 화북1동 1930-4", "lat": 33.522348, "lng": 126.563134}, {"name": "클린하우스", "address": "제주특별자치도 제주시 화북2동 4946", "lat": 33.513044, "lng": 126.552568}, {"name": "클린하우스", "address": "제주특별자치도 제주시 거로길 1", "lat": 33.514448, "lng": 126.556318}, {"name": "클린하우스", "address": "제주특별자치도 제주시 거로길 37", "lat": 33.512546, "lng": 126.558554}, {"name": "클린하우스", "address": "제주특별자치도 제주시 화북2동 4987-6", "lat": 33.511752, "lng": 126.558607}, {"name": "클린하우스", "address": "제주특별자치도 제주시 선반로 30", "lat": 33.514998, "lng": 126.561065}, {"name": "클린하우스", "address": "제주특별자치도 제주시 거로남3길 22", "lat": 33.510862, "lng": 126.560985}, {"name": "클린하우스", "address": "제주특별자치도 제주시 화북2동 3350-6", "lat": 33.508472, "lng": 126.562402}, {"name": "클린하우스", "address": "제주특별자치도 제주시 거로남4길 19-8", "lat": 33.508482, "lng": 126.5624}, {"name": "클린하우스", "address": "제주특별자치도 제주시 황사평6길 73", "lat": 33.493077, "lng": 126.559059}, {"name": "클린하우스", "address": "제주특별자치도 제주시 화북1동 11-7", "lat": 33.51982459, "lng": 126.5734742}, {"name": "클린하우스", "address": "제주특별자치도 제주시 동화로1길 45-22", "lat": 33.518493, "lng": 126.578544}, {"name": "클린하우스", "address": "제주특별자치도 제주시 화북1동 14-1", "lat": 33.517986, "lng": 126.576492}, {"name": "클린하우스", "address": "제주특별자치도 제주시 화북2동 2646-9", "lat": 33.503298, "lng": 126.56805}, {"name": "클린하우스", "address": "제주특별자치도 제주시 화북1동 4733-3", "lat": 33.514396, "lng": 126.55854}, {"name": "클린하우스", "address": "제주특별자치도 제주시 진동로 48", "lat": 33.52321189, "lng": 126.5676725}, {"name": "클린하우스", "address": "제주특별자치도 제주시 동제원길 41", "lat": 33.519008, "lng": 126.559419}, {"name": "클린하우스", "address": "제주특별자치도 제주시 화북1동 1966-16", "lat": 33.521341, "lng": 126.5667618}, {"name": "클린하우스", "address": "제주특별자치도 제주시 화북1동 1619-8", "lat": 33.524572, "lng": 126.566022}, {"name": "클린하우스", "address": "제주특별자치도 제주시 거로서길 15", "lat": 33.512947, "lng": 126.555547}, {"name": "클린하우스", "address": "제주특별자치도 제주시 화삼북로4길 10", "lat": 33.516947, "lng": 126.577573}, {"name": "클린하우스", "address": "제주특별자치도 제주시 진남로6길 17", "lat": 33.52013798, "lng": 126.5654935}, {"name": "클린하우스", "address": "제주특별자치도 제주시 청풍남8길 12-1", "lat": 33.51843092, "lng": 126.5707877}, {"name": "클린하우스", "address": "제주특별자치도 제주시 화북2동 2951-1", "lat": 33.494407, "lng": 126.563655}, {"name": "클린하우스", "address": "제주특별자치도 제주시 화북1동 4301-4", "lat": 33.525033, "lng": 126.562625}, {"name": "클린하우스", "address": "제주특별자치도 제주시 진서로 12", "lat": 33.519822, "lng": 126.563374}, {"name": "클린하우스", "address": "제주특별자치도 제주시 화북2동 4841", "lat": 33.51233, "lng": 126.550175}, {"name": "클린하우스", "address": "제주특별자치도 제주시 선반남2길 30-9", "lat": 33.511484, "lng": 126.562352}, {"name": "클린하우스", "address": "제주특별자치도 제주시 선반남2길 1", "lat": 33.512198, "lng": 126.559829}, {"name": "클린하우스", "address": "제주특별자치도 제주시 청풍남4길 13", "lat": 33.51773594, "lng": 126.5656895}, {"name": "클린하우스", "address": "제주특별자치도 제주시 화북1동 2034-3", "lat": 33.51856156, "lng": 126.5668229}, {"name": "클린하우스", "address": "제주특별자치도 제주시 화북1동 1119-1", "lat": 33.5193995, "lng": 126.5709673}, {"name": "클린하우스", "address": "제주특별자치도 제주시 화삼로 17", "lat": 33.514593, "lng": 126.574821}, {"name": "클린하우스", "address": "제주특별자치도 제주시 화북2동 3141-1", "lat": 33.501076, "lng": 126.562155}, {"name": "클린하우스", "address": "제주특별자치도 제주시 화북2동 3021-3", "lat": 33.495542, "lng": 126.56182}, {"name": "클린하우스", "address": "제주특별자치도 제주시 기와5길 87", "lat": 33.490813, "lng": 126.557868}, {"name": "클린하우스", "address": "제주특별자치도 제주시 거로남8길 23", "lat": 33.513088, "lng": 126.572717}, {"name": "클린하우스", "address": "제주특별자치도 제주시 원당로15길 32", "lat": 33.52954, "lng": 126.593607}, {"name": "클린하우스", "address": "제주특별자치도 제주시 선사로6길 67", "lat": 33.528274, "lng": 126.591852}, {"name": "클린하우스", "address": "제주특별자치도 제주시 삼양2동 2181-14", "lat": 33.520949, "lng": 126.586941}, {"name": "클린하우스", "address": "제주특별자치도 제주시 삼양1동 1628-7", "lat": 33.526773, "lng": 126.590674}, {"name": "클린하우스", "address": "제주특별자치도 제주시 삼양1동 1651-5", "lat": 33.525615, "lng": 126.590391}, {"name": "클린하우스", "address": "제주특별자치도 제주시 삼양1동 1521-36", "lat": 33.523305, "lng": 126.588568}, {"name": "클린하우스", "address": "제주특별자치도 제주시 원당로 17-1", "lat": 33.523308, "lng": 126.588566}, {"name": "클린하우스", "address": "제주특별자치도 제주시 삼양1동 1657-8", "lat": 33.524735, "lng": 126.586767}, {"name": "클린하우스", "address": "제주특별자치도 제주시 삼양2동 1953", "lat": 33.524692, "lng": 126.584321}, {"name": "클린하우스", "address": "제주특별자치도 제주시 삼양2동 2179-10", "lat": 33.519955, "lng": 126.584162}, {"name": "클린하우스", "address": "제주특별자치도 제주시 삼양2동 2130-1", "lat": 33.521826, "lng": 126.583033}, {"name": "클린하우스", "address": "제주특별자치도 제주시 삼양2동 2100-2", "lat": 33.523976, "lng": 126.582171}, {"name": "클린하우스", "address": "제주특별자치도 제주시 삼양3동 2650-3", "lat": 33.525425, "lng": 126.574042}, {"name": "클린하우스", "address": "제주특별자치도 제주시 삼양2동 2154-1", "lat": 33.520226, "lng": 126.579758}, {"name": "클린하우스", "address": "제주특별자치도 제주시 삼양2동 2133-5", "lat": 33.522084, "lng": 126.584338}, {"name": "클린하우스", "address": "제주특별자치도 제주시 벌랑길 71", "lat": 33.526792, "lng": 126.576357}, {"name": "클린하우스", "address": "제주특별자치도 제주시 도련2동 568-18", "lat": 33.51445839, "lng": 126.5897617}, {"name": "클린하우스", "address": "제주특별자치도 제주시 도련길 1", "lat": 33.50929784, "lng": 126.5896624}, {"name": "클린하우스", "address": "제주특별자치도 제주시 도련3길 37", "lat": 33.51050665, "lng": 126.5860427}, {"name": "클린하우스", "address": "제주특별자치도 제주시 도련안길 46", "lat": 33.5091617, "lng": 126.5847293}, {"name": "클린하우스", "address": "제주특별자치도 제주시 삼양2동 2009-1", "lat": 33.524566, "lng": 126.581903}, {"name": "클린하우스", "address": "제주특별자치도 제주시 도련1동 2238-3", "lat": 33.5087628, "lng": 126.5825859}, {"name": "클린하우스", "address": "제주특별자치도 제주시 삼양1동 1911-4", "lat": 33.53144, "lng": 126.591397}, {"name": "클린하우스", "address": "제주특별자치도 제주시 삼양1동 1579-1", "lat": 33.52954, "lng": 126.593607}, {"name": "클린하우스", "address": "제주특별자치도 제주시 삼양1동 1939-5", "lat": 33.529665, "lng": 126.589159}, {"name": "클린하우스", "address": "제주특별자치도 제주시 일주동로 453", "lat": 33.521733, "lng": 126.593534}, {"name": "클린하우스", "address": "제주특별자치도 제주시 삼양1동 1313-13", "lat": 33.521036, "lng": 126.596495}, {"name": "클린하우스", "address": "제주특별자치도 제주시 선사로 12", "lat": 33.521733, "lng": 126.593534}, {"name": "클린하우스", "address": "제주특별자치도 제주시 삼양2동 2124-7", "lat": 33.52258401, "lng": 126.5861099}, {"name": "클린하우스", "address": "제주특별자치도 제주시 삼양3동 2446-11", "lat": 33.52444, "lng": 126.579756}, {"name": "클린하우스", "address": "제주특별자치도 제주시 삼양3동 2536-2", "lat": 33.524358, "lng": 126.576673}, {"name": "클린하우스", "address": "제주특별자치도 제주시 도련2동 581-1", "lat": 33.51578978, "lng": 126.5894789}, {"name": "클린하우스", "address": "제주특별자치도 제주시 매촌4길 20", "lat": 33.51507669, "lng": 126.5920711}, {"name": "클린하우스", "address": "제주특별자치도 제주시 도련2동 454-2", "lat": 33.51436182, "lng": 126.5924745}, {"name": "클린하우스", "address": "제주특별자치도 제주시 도련1동 1740-1", "lat": 33.50899607, "lng": 126.5901248}, {"name": "클린하우스", "address": "제주특별자치도 제주시 도련6길 1", "lat": 33.50728293, "lng": 126.5827731}, {"name": "클린하우스", "address": "제주특별자치도 제주시 도련1동 2746", "lat": 33.50759848, "lng": 126.580123}, {"name": "클린하우스", "address": "제주특별자치도 제주시 화삼로 145", "lat": 33.515967, "lng": 126.58615}, {"name": "클린하우스", "address": "제주특별자치도 제주시 도련1동 1640-2", "lat": 33.50772126, "lng": 126.5878169}, {"name": "클린하우스", "address": "제주특별자치도 제주시 도련1동 1983-5", "lat": 33.512546, "lng": 126.578374}, {"name": "클린하우스", "address": "제주특별자치도 제주시 도련1동 2205-1", "lat": 33.5110763, "lng": 126.5779832}, {"name": "클린하우스", "address": "제주특별자치도 제주시 도련1동 1035-1", "lat": 33.50133636, "lng": 126.5941326}, {"name": "클린하우스", "address": "제주특별자치도 제주시 거로남10길 132-14", "lat": 33.503296, "lng": 126.568048}, {"name": "클린하우스", "address": "제주특별자치도 제주시 봉개동 1811-2", "lat": 33.49192408, "lng": 126.5922875}, {"name": "클린하우스", "address": "제주특별자치도 제주시 봉개동 2428-3", "lat": 33.49199438, "lng": 126.5909087}, {"name": "클린하우스", "address": "제주특별자치도 제주시 봉개동 2015-9", "lat": 33.48833775, "lng": 126.5935836}, {"name": "클린하우스", "address": "제주특별자치도 제주시 봉개동 2084-3", "lat": 33.48784837, "lng": 126.5968031}, {"name": "클린하우스", "address": "제주특별자치도 제주시 용강동 1538-1", "lat": 33.47799196, "lng": 126.5861214}, {"name": "클린하우스", "address": "제주특별자치도 제주시 용강동 1306-4", "lat": 33.476653, "lng": 126.5858858}, {"name": "클린하우스", "address": "제주특별자치도 제주시 봉개동 418-4", "lat": 33.47058456, "lng": 126.6108664}, {"name": "클린하우스", "address": "제주특별자치도 제주시 회천동 2177-3", "lat": 33.4988742, "lng": 126.6087345}, {"name": "클린하우스", "address": "제주특별자치도 제주시 동회천길 11", "lat": 33.50425387, "lng": 126.6144441}, {"name": "클린하우스", "address": "제주특별자치도 제주시 봉개동 1552-7", "lat": 33.48907701, "lng": 126.598704}, {"name": "클린하우스", "address": "제주특별자치도 제주시 봉개동 1819-18", "lat": 33.49151018, "lng": 126.593751}, {"name": "클린하우스", "address": "제주특별자치도 제주시 봉개동 2448-11", "lat": 33.4908444, "lng": 126.5893882}, {"name": "클린하우스", "address": "제주특별자치도 제주시 봉개동 609-2", "lat": 33.48428263, "lng": 126.6038713}, {"name": "클린하우스", "address": "제주특별자치도 제주시 봉개동 297-4", "lat": 33.46853552, "lng": 126.6113119}, {"name": "클린하우스", "address": "제주특별자치도 제주시 봉개북3길 10", "lat": 33.49101896, "lng": 126.5959854}, {"name": "클린하우스", "address": "제주특별자치도 제주시 봉개동 227-39", "lat": 33.46536042, "lng": 126.6157028}, {"name": "클린하우스", "address": "제주특별자치도 제주시 봉개동 1494-2", "lat": 33.49193126, "lng": 126.6011041}, {"name": "클린하우스", "address": "제주특별자치도 제주시 봉개동 1353", "lat": 33.48726798, "lng": 126.5996249}, {"name": "클린하우스", "address": "제주특별자치도 제주시 번영로 561-8", "lat": 33.48707766, "lng": 126.6007661}, {"name": "클린하우스", "address": "제주특별자치도 제주시 명림로 268-69", "lat": 33.46340873, "lng": 126.6116311}, {"name": "클린하우스", "address": "제주특별자치도 제주시 회천동 1315-1", "lat": 33.50379598, "lng": 126.6160485}, {"name": "클린하우스", "address": "제주특별자치도 제주시 번영로 407", "lat": 33.4945972, "lng": 126.5866553}, {"name": "클린하우스", "address": "제주특별자치도 제주시 도련1동 1229-3", "lat": 33.49507868, "lng": 126.5937974}, {"name": "클린하우스", "address": "제주특별자치도 제주시 아봉로 28", "lat": 33.47691691, "lng": 126.5472252}, {"name": "클린하우스", "address": "제주특별자치도 제주시 인다12길 41", "lat": 33.47344688, "lng": 126.5499947}, {"name": "클린하우스", "address": "제주특별자치도 제주시 제주대학로 115", "lat": 33.46008601, "lng": 126.5622018}, {"name": "클린하우스", "address": "제주특별자치도 제주시 첨단로7길 11", "lat": 33.45034785, "lng": 126.5734352}, {"name": "클린하우스", "address": "제주특별자치도 제주시 516로 3120-1", "lat": 33.45254, "lng": 126.5538806}, {"name": "클린하우스", "address": "제주특별자치도 제주시 아봉로 279-15", "lat": 33.47340877, "lng": 126.570498}, {"name": "클린하우스", "address": "제주특별자치도 제주시 아연로 531", "lat": 33.4776788, "lng": 126.5359775}, {"name": "클린하우스", "address": "제주특별자치도 제주시 금월길 90-1", "lat": 33.480844, "lng": 126.5531989}, {"name": "클린하우스", "address": "제주특별자치도 제주시 월두2길 58", "lat": 33.4853007, "lng": 126.5488038}, {"name": "클린하우스", "address": "제주특별자치도 제주시 기자길 14", "lat": 33.4845423, "lng": 126.5437288}, {"name": "클린하우스", "address": "제주특별자치도 제주시 월평동 515", "lat": 33.46857938, "lng": 126.5763858}, {"name": "클린하우스", "address": "제주특별자치도 제주시 영평7길 41-14", "lat": 33.4869461, "lng": 126.5768733}, {"name": "클린하우스", "address": "제주특별자치도 제주시 기와4길 39", "lat": 33.4798566, "lng": 126.5607405}, {"name": "클린하우스", "address": "제주특별자치도 제주시 아봉로 248", "lat": 33.47617581, "lng": 126.5683203}, {"name": "클린하우스", "address": "제주특별자치도 제주시 오등13길 68", "lat": 33.4754146, "lng": 126.5302053}, {"name": "클린하우스", "address": "제주특별자치도 제주시 오등9길 41", "lat": 33.4755592, "lng": 126.52582}, {"name": "클린하우스", "address": "제주특별자치도 제주시 아연로 295", "lat": 33.4669415, "lng": 126.5192731}, {"name": "클린하우스", "address": "제주특별자치도 제주시 간월동로5길 56", "lat": 33.4893036, "lng": 126.5473477}, {"name": "클린하우스", "address": "제주특별자치도 제주시 간월동로5길 36", "lat": 33.4900886, "lng": 126.549171}, {"name": "클린하우스", "address": "제주특별자치도 제주시 구산로4길 17", "lat": 33.4817476, "lng": 126.5379315}, {"name": "클린하우스", "address": "제주특별자치도 제주시 아라1동 2348-4", "lat": 33.4761402, "lng": 126.5488464}, {"name": "클린하우스", "address": "제주특별자치도 제주시 신설로11길 5", "lat": 33.4918309, "lng": 126.5439786}, {"name": "클린하우스", "address": "제주특별자치도 제주시 영평길 147", "lat": 33.48811128, "lng": 126.5732947}, {"name": "클린하우스", "address": "제주특별자치도 제주시 대원북길 23-1", "lat": 33.4757272, "lng": 126.5319909}, {"name": "클린하우스", "address": "제주특별자치도 제주시 한북로 176", "lat": 33.46240012, "lng": 126.5339276}, {"name": "클린하우스", "address": "제주특별자치도 제주시 구남동1길 44", "lat": 33.4930773, "lng": 126.5411853}, {"name": "클린하우스", "address": "제주특별자치도 제주시 인다8길 38", "lat": 33.4761402, "lng": 126.5488464}, {"name": "클린하우스", "address": "제주특별자치도 제주시 인다9길 29", "lat": 33.4877862, "lng": 126.543563}, {"name": "클린하우스", "address": "제주특별자치도 제주시 인다6길 31", "lat": 33.4866128, "lng": 126.542252}, {"name": "클린하우스", "address": "제주특별자치도 제주시 금천길 26", "lat": 33.4794125, "lng": 126.5534166}, {"name": "클린하우스", "address": "제주특별자치도 제주시 인다13길 45-14", "lat": 33.4898203, "lng": 126.5493153}, {"name": "클린하우스", "address": "제주특별자치도 제주시 아란5길 20", "lat": 33.48333388, "lng": 126.5377398}, {"name": "클린하우스", "address": "제주특별자치도 제주시 아란11길 9-14", "lat": 33.4815521, "lng": 126.5354713}, {"name": "클린하우스", "address": "제주특별자치도 제주시 아란15길 20", "lat": 33.4677637, "lng": 126.5212831}, {"name": "클린하우스", "address": "제주특별자치도 제주시 아란서길 97-2", "lat": 33.47971593, "lng": 126.5463273}, {"name": "클린하우스", "address": "제주특별자치도 제주시 아란서길 79", "lat": 33.4863435, "lng": 126.5412042}, {"name": "클린하우스", "address": "제주특별자치도 제주시 아란1길 49-8", "lat": 33.4874321, "lng": 126.5476807}, {"name": "클린하우스", "address": "제주특별자치도 제주시 아란1길 15", "lat": 33.47616162, "lng": 126.5403953}, {"name": "클린하우스", "address": "제주특별자치도 제주시 아란9길 11", "lat": 33.4686885, "lng": 126.5204082}, {"name": "클린하우스", "address": "제주특별자치도 제주시 아란12길 20", "lat": 33.47694049, "lng": 126.5153099}, {"name": "클린하우스", "address": "제주특별자치도 제주시 간월동로5길 35", "lat": 33.4898203, "lng": 126.5493153}, {"name": "클린하우스", "address": "제주특별자치도 제주시 중앙로 606-5", "lat": 33.46706734, "lng": 126.5107837}, {"name": "클린하우스", "address": "제주특별자치도 제주시 제주대학로4길 10", "lat": 33.45707572, "lng": 126.5543727}, {"name": "클린하우스", "address": "제주특별자치도 제주시 기자길 47", "lat": 33.482585, "lng": 126.5463775}, {"name": "클린하우스", "address": "제주특별자치도 제주시 사송길 93-15", "lat": 33.4696927, "lng": 126.5679957}, {"name": "클린하우스", "address": "제주특별자치도 제주시 첨단로 202", "lat": 33.45419312, "lng": 126.5713078}, {"name": "클린하우스", "address": "제주특별자치도 제주시 아라1동 산 41-5", "lat": 33.43696634, "lng": 126.5549871}, {"name": "클린하우스", "address": "제주특별자치도 제주시 아라1동 6078-7", "lat": 33.4675725, "lng": 126.5035726}, {"name": "클린하우스", "address": "제주특별자치도 제주시 월두4길 11", "lat": 33.4832903, "lng": 126.5499599}, {"name": "클린하우스", "address": "제주특별자치도 제주시 영평동 2009-6", "lat": 33.4716752, "lng": 126.5698701}, {"name": "클린하우스", "address": "제주특별자치도 제주시 첨단동길 92", "lat": 33.4574229, "lng": 126.5779451}, {"name": "클린하우스", "address": "제주특별자치도 제주시 오등봉길 91", "lat": 33.4732674, "lng": 126.5228535}, {"name": "클린하우스", "address": "제주특별자치도 제주시 아봉로 87", "lat": 33.4786272, "lng": 126.5530127}, {"name": "클린하우스", "address": "제주특별자치도 제주시 아라2동 1360-15", "lat": 33.4877862, "lng": 126.543563}, {"name": "클린하우스", "address": "제주특별자치도 제주시 산천단남2길 72", "lat": 33.44917572, "lng": 126.5644657}, {"name": "클린하우스", "address": "제주특별자치도 제주시 중앙로 409-6", "lat": 33.4866128, "lng": 126.542252}, {"name": "클린하우스", "address": "제주특별자치도 제주시 오등8길 16", "lat": 33.4703603, "lng": 126.5245659}, {"name": "클린하우스", "address": "제주특별자치도 제주시 영평동 795-3", "lat": 33.48250189, "lng": 126.5708413}, {"name": "클린하우스", "address": "제주특별자치도 제주시 아라1동 2486-3", "lat": 33.48576363, "lng": 126.5381675}, {"name": "클린하우스", "address": "제주특별자치도 제주시 아라1동 2612-21", "lat": 33.48333388, "lng": 126.5377398}, {"name": "클린하우스", "address": "제주특별자치도 제주시 구산서길 78", "lat": 33.4815521, "lng": 126.5354713}, {"name": "클린하우스", "address": "제주특별자치도 제주시 아봉로 433", "lat": 33.470615, "lng": 126.5811724}, {"name": "클린하우스", "address": "제주특별자치도 제주시 아연로 307-9", "lat": 33.4677637, "lng": 126.5212831}, {"name": "클린하우스", "address": "제주특별자치도 제주시 죽성서길 6", "lat": 33.46115433, "lng": 126.5335825}, {"name": "클린하우스", "address": "제주특별자치도 제주시 아라1동 481-9", "lat": 33.45588809, "lng": 126.5498705}, {"name": "클린하우스", "address": "제주특별자치도 제주시 산천단남길 32-3", "lat": 33.44584663, "lng": 126.5617641}, {"name": "클린하우스", "address": "제주특별자치도 제주시 산록북로 690-1", "lat": 33.4264034, "lng": 126.5574757}, {"name": "클린하우스", "address": "제주특별자치도 제주시 사송길 52", "lat": 33.4745351, "lng": 126.5650475}, {"name": "클린하우스", "address": "제주특별자치도 제주시 월평동 945", "lat": 33.4674434, "lng": 126.5728748}, {"name": "클린하우스", "address": "제주특별자치도 제주시 기자서길 20-16", "lat": 33.47971593, "lng": 126.5463273}, {"name": "클린하우스", "address": "제주특별자치도 제주시 아라1동 2452-7", "lat": 33.4863435, "lng": 126.5412042}, {"name": "클린하우스", "address": "제주특별자치도 제주시 간월동로 52", "lat": 33.4874321, "lng": 126.5476807}, {"name": "클린하우스", "address": "제주특별자치도 제주시 오등1길 167-9", "lat": 33.4686885, "lng": 126.5204082}, {"name": "클린하우스", "address": "제주특별자치도 제주시 서광로2길 33-1", "lat": 33.49815074, "lng": 126.5142746}, {"name": "클린하우스", "address": "제주특별자치도 제주시 오라2동 1191-3", "lat": 33.49482927, "lng": 126.511728}, {"name": "클린하우스", "address": "제주특별자치도 제주시 오라로 140", "lat": 33.4943038, "lng": 126.5178605}, {"name": "클린하우스", "address": "제주특별자치도 제주시 사평4길 26", "lat": 33.49109998, "lng": 126.5123038}, {"name": "클린하우스", "address": "제주특별자치도 제주시 서사로25길 18", "lat": 33.49687528, "lng": 126.5205585}, {"name": "클린하우스", "address": "제주특별자치도 제주시 서사로24길 24", "lat": 33.49845435, "lng": 126.5176941}, {"name": "클린하우스", "address": "제주특별자치도 제주시 공설로11길 1", "lat": 33.49801059, "lng": 126.5192554}, {"name": "클린하우스", "address": "제주특별자치도 제주시 공설로5길 4", "lat": 33.49810271, "lng": 126.5172476}, {"name": "클린하우스", "address": "제주특별자치도 제주시 동성길 41", "lat": 33.49661461, "lng": 126.5095151}, {"name": "클린하우스", "address": "제주특별자치도 제주시 월구길 36", "lat": 33.49904097, "lng": 126.5060038}, {"name": "클린하우스", "address": "제주특별자치도 제주시 월구길 12", "lat": 33.49878232, "lng": 126.503743}, {"name": "클린하우스", "address": "제주특별자치도 제주시 월구1길 31-31", "lat": 33.49628308, "lng": 126.5051985}, {"name": "클린하우스", "address": "제주특별자치도 제주시 오남로 221", "lat": 33.47694049, "lng": 126.5153099}, {"name": "클린하우스", "address": "제주특별자치도 제주시 오라2동 2179-1", "lat": 33.49262858, "lng": 126.510874}, {"name": "클린하우스", "address": "제주특별자치도 제주시 사평4길 33", "lat": 33.49035012, "lng": 126.5126355}, {"name": "클린하우스", "address": "제주특별자치도 제주시 연사2길 2", "lat": 33.48867003, "lng": 126.514071}, {"name": "클린하우스", "address": "제주특별자치도 제주시 사평6길 29", "lat": 33.49029276, "lng": 126.514046}, {"name": "클린하우스", "address": "제주특별자치도 제주시 연사길 100", "lat": 33.48773744, "lng": 126.5087469}, {"name": "클린하우스", "address": "제주특별자치도 제주시 정실4길 11", "lat": 33.4687187, "lng": 126.5085387}, {"name": "클린하우스", "address": "제주특별자치도 제주시 오라2동 659-12", "lat": 33.46706734, "lng": 126.5107837}, {"name": "클린하우스", "address": "제주특별자치도 제주시 오남로6길 7", "lat": 33.49198252, "lng": 126.517119}, {"name": "클린하우스", "address": "제주특별자치도 제주시 오남로6길 6", "lat": 33.49196567, "lng": 126.5151412}, {"name": "클린하우스", "address": "제주특별자치도 제주시 월구1길 21", "lat": 33.49720258, "lng": 126.5028518}, {"name": "클린하우스", "address": "제주특별자치도 제주시 사평4길 44", "lat": 33.48951914, "lng": 126.512242}, {"name": "클린하우스", "address": "제주특별자치도 제주시 정실동길 15", "lat": 33.4657412, "lng": 126.5143126}, {"name": "클린하우스", "address": "제주특별자치도 제주시 오라2동 1986-13", "lat": 33.48877094, "lng": 126.5108136}, {"name": "클린하우스", "address": "제주특별자치도 제주시 오라2동 1972-3", "lat": 33.48877094, "lng": 126.5108136}, {"name": "클린하우스", "address": "제주특별자치도 제주시 오라3동 2101-11", "lat": 33.49104054, "lng": 126.5068202}, {"name": "클린하우스", "address": "제주특별자치도 제주시 아연로 253", "lat": 33.4677095, "lng": 126.5145845}, {"name": "클린하우스", "address": "제주특별자치도 제주시 동성길 13", "lat": 33.49894157, "lng": 126.510528}, {"name": "클린하우스", "address": "제주특별자치도 제주시 오라2동 335-45", "lat": 33.44023268, "lng": 126.5125673}, {"name": "클린하우스", "address": "제주특별자치도 제주시 연사길 142", "lat": 33.48661114, "lng": 126.5052975}, {"name": "클린하우스", "address": "제주특별자치도 제주시 서광로 52-7", "lat": 33.49826325, "lng": 126.5023989}, {"name": "클린하우스", "address": "제주특별자치도 제주시 동성길 76-3", "lat": 33.49379343, "lng": 126.508324}, {"name": "클린하우스", "address": "제주특별자치도 제주시 월구1길 70", "lat": 33.4939617, "lng": 126.5009413}, {"name": "클린하우스", "address": "제주특별자치도 제주시 연오로 47-5", "lat": 33.4888303, "lng": 126.5020121}, {"name": "클린하우스", "address": "제주특별자치도 제주시 연삼로 185-1", "lat": 33.49297478, "lng": 126.512539}, {"name": "클린하우스", "address": "제주특별자치도 제주시 오남로 46-2", "lat": 33.49122636, "lng": 126.5192584}, {"name": "클린하우스", "address": "제주특별자치도 제주시 오남로 231", "lat": 33.47543062, "lng": 126.5158847}, {"name": "클린하우스", "address": "제주특별자치도 제주시 오라남로 46-80", "lat": 33.45397787, "lng": 126.5104356}, {"name": "클린하우스", "address": "제주특별자치도 제주시 오라남로 57-10", "lat": 33.45565504, "lng": 126.51321}, {"name": "클린하우스", "address": "제주특별자치도 제주시 연오로 173", "lat": 33.4778496, "lng": 126.5003859}, {"name": "클린하우스", "address": "제주특별자치도 제주시 정실4길 63-1", "lat": 33.4675725, "lng": 126.5035726}, {"name": "클린하우스", "address": "제주특별자치도 제주시 아연로 113-8", "lat": 33.4737313, "lng": 126.5045562}, {"name": "클린하우스", "address": "제주특별자치도 제주시 신대로 45", "lat": 33.493037, "lng": 126.497502}, {"name": "클린하우스", "address": "제주특별자치도 제주시 귀아랑1길 25", "lat": 33.492132, "lng": 126.496403}, {"name": "클린하우스", "address": "제주특별자치도 제주시 연동 320-12", "lat": 33.492132, "lng": 126.496403}, {"name": "클린하우스", "address": "제주특별자치도 제주시 문연로 27", "lat": 33.49093, "lng": 126.50022}, {"name": "클린하우스", "address": "제주특별자치도 제주시 문연로 5", "lat": 33.490651, "lng": 126.497477}, {"name": "클린하우스", "address": "제주특별자치도 제주시 문연로 30", "lat": 33.488769, "lng": 126.500771}, {"name": "클린하우스", "address": "제주특별자치도 제주시 문연로 6", "lat": 33.488646, "lng": 126.498725}, {"name": "클린하우스", "address": "제주특별자치도 제주시 신대로13길 37", "lat": 33.487632, "lng": 126.500516}, {"name": "클린하우스", "address": "제주특별자치도 제주시 신대로13길 38-3", "lat": 33.492132, "lng": 126.496403}, {"name": "클린하우스", "address": "제주특별자치도 제주시 선덕로 23", "lat": 33.486559, "lng": 126.499627}, {"name": "클린하우스", "address": "제주특별자치도 제주시 선덕로3길 5", "lat": 33.48624, "lng": 126.498578}, {"name": "클린하우스", "address": "제주특별자치도 제주시 신대로 109", "lat": 33.487244, "lng": 126.49719}, {"name": "클린하우스", "address": "제주특별자치도 제주시 선덕로8길 3", "lat": 33.48501, "lng": 126.500964}, {"name": "클린하우스", "address": "제주특별자치도 제주시 선덕로6길 19", "lat": 33.484008, "lng": 126.499758}, {"name": "클린하우스", "address": "제주특별자치도 제주시 비월길 7", "lat": 33.485059, "lng": 126.497124}, {"name": "클린하우스", "address": "제주특별자치도 제주시 선덕로4길 35", "lat": 33.482408, "lng": 126.498442}, {"name": "클린하우스", "address": "제주특별자치도 제주시 신대로 60", "lat": 33.492132, "lng": 126.496403}, {"name": "클린하우스", "address": "제주특별자치도 제주시 삼무로11길 28", "lat": 33.491243, "lng": 126.49602}, {"name": "클린하우스", "address": "제주특별자치도 제주시 삼무로11길 28", "lat": 33.490925, "lng": 126.495715}, {"name": "클린하우스", "address": "제주특별자치도 제주시 신광로1길 10", "lat": 33.493175, "lng": 126.493527}, {"name": "클린하우스", "address": "제주특별자치도 제주시 신대로8길 42", "lat": 33.492963, "lng": 126.492406}, {"name": "클린하우스", "address": "제주특별자치도 제주시 신광로1길 38", "lat": 33.492282, "lng": 126.491265}, {"name": "클린하우스", "address": "제주특별자치도 제주시 신대로8길 38", "lat": 33.492282, "lng": 126.491265}, {"name": "클린하우스", "address": "제주특별자치도 제주시 연동 270-15", "lat": 33.491405, "lng": 126.492244}, {"name": "클린하우스", "address": "제주특별자치도 제주시 신대로10길 50", "lat": 33.490906, "lng": 126.491369}, {"name": "클린하우스", "address": "제주특별자치도 제주시 연동 281-25", "lat": 33.490298, "lng": 126.493209}, {"name": "클린하우스", "address": "제주특별자치도 제주시 신대로 104", "lat": 33.488747, "lng": 126.495946}, {"name": "클린하우스", "address": "제주특별자치도 제주시 연동 292-82", "lat": 33.488978, "lng": 126.494429}, {"name": "클린하우스", "address": "제주특별자치도 제주시 신대로12길 52", "lat": 33.489445, "lng": 126.491294}, {"name": "클린하우스", "address": "제주특별자치도 제주시 신대로 144", "lat": 33.484631, "lng": 126.495756}, {"name": "클린하우스", "address": "제주특별자치도 제주시 신대로 136", "lat": 33.48509, "lng": 126.495698}, {"name": "클린하우스", "address": "제주특별자치도 제주시 연동12길 5", "lat": 33.485198, "lng": 126.493365}, {"name": "클린하우스", "address": "제주특별자치도 제주시 연동10길 8", "lat": 33.4848, "lng": 126.490624}, {"name": "클린하우스", "address": "제주특별자치도 제주시 연동14길 13", "lat": 33.484655, "lng": 126.494421}, {"name": "클린하우스", "address": "제주특별자치도 제주시 연동12길 28-1", "lat": 33.483313, "lng": 126.49302}, {"name": "클린하우스", "address": "제주특별자치도 제주시 신대로20길 45", "lat": 33.483402, "lng": 126.491863}, {"name": "클린하우스", "address": "제주특별자치도 제주시 신대로22길 25", "lat": 33.482356, "lng": 126.492562}, {"name": "클린하우스", "address": "제주특별자치도 제주시 연동 1373-4", "lat": 33.482481, "lng": 126.491741}, {"name": "클린하우스", "address": "제주특별자치도 제주시 연동 1373-4", "lat": 33.482336, "lng": 126.492546}, {"name": "클린하우스", "address": "제주특별자치도 제주시 삼무로 19", "lat": 33.489916, "lng": 126.489036}, {"name": "클린하우스", "address": "제주특별자치도 제주시 제원길 3-1", "lat": 33.489387, "lng": 126.489312}, {"name": "클린하우스", "address": "제주특별자치도 제주시 신광로4길 44", "lat": 33.488294, "lng": 126.485213}, {"name": "클린하우스", "address": "제주특별자치도 제주시 신광로6길 14", "lat": 33.488425, "lng": 126.489279}, {"name": "클린하우스", "address": "제주특별자치도 제주시 신광로6길 38", "lat": 33.487577, "lng": 126.485811}, {"name": "클린하우스", "address": "제주특별자치도 제주시 신광로6길 25", "lat": 33.488444, "lng": 126.488043}, {"name": "클린하우스", "address": "제주특별자치도 제주시 연동1길 40", "lat": 33.486298, "lng": 126.486513}, {"name": "클린하우스", "address": "제주특별자치도 제주시 제원4길 18-1", "lat": 33.486602, "lng": 126.487639}, {"name": "클린하우스", "address": "제주특별자치도 제주시 연동4길 12-11", "lat": 33.484341, "lng": 126.486463}, {"name": "클린하우스", "address": "제주특별자치도 제주시 연동6길 29", "lat": 33.483333, "lng": 126.489023}, {"name": "클린하우스", "address": "제주특별자치도 제주시 연동 263-18", "lat": 33.484907, "lng": 126.489215}, {"name": "클린하우스", "address": "제주특별자치도 제주시 신광로12길 17", "lat": 33.482482, "lng": 126.487762}, {"name": "클린하우스", "address": "제주특별자치도 제주시 신광로12길 17", "lat": 33.482495, "lng": 126.488677}, {"name": "클린하우스", "address": "제주특별자치도 제주시 연동4길 32", "lat": 33.483485, "lng": 126.486677}, {"name": "클린하우스", "address": "제주특별자치도 제주시 연삼로 29-4", "lat": 33.494296, "lng": 126.496126}, {"name": "클린하우스", "address": "제주특별자치도 제주시 명주길 2", "lat": 33.494503, "lng": 126.493173}, {"name": "클린하우스", "address": "제주특별자치도 제주시 연동 1981", "lat": 33.493944, "lng": 126.485554}, {"name": "클린하우스", "address": "제주특별자치도 제주시 제성3길 19", "lat": 33.495176, "lng": 126.48369}, {"name": "클린하우스", "address": "제주특별자치도 제주시 제성1길 20", "lat": 33.495272, "lng": 126.482522}, {"name": "클린하우스", "address": "제주특별자치도 제주시 연동 2305-7", "lat": 33.493362, "lng": 126.48726}, {"name": "클린하우스", "address": "제주특별자치도 제주시 도령로11길 30", "lat": 33.492795, "lng": 126.486186}, {"name": "클린하우스", "address": "제주특별자치도 제주시 성신로 13-4", "lat": 33.491269, "lng": 126.484928}, {"name": "클린하우스", "address": "제주특별자치도 제주시 연동 2427", "lat": 33.493172, "lng": 126.4842}, {"name": "클린하우스", "address": "제주특별자치도 제주시 연동 1958-1", "lat": 33.491685, "lng": 126.482609}, {"name": "클린하우스", "address": "제주특별자치도 제주시 연동 1958-1", "lat": 33.491637, "lng": 126.482596}, {"name": "클린하우스", "address": "제주특별자치도 제주시 연동 1962-1", "lat": 33.490887, "lng": 126.482813}, {"name": "클린하우스", "address": "제주특별자치도 제주시 남녕로 54", "lat": 33.49221, "lng": 126.47997}, {"name": "클린하우스", "address": "제주특별자치도 제주시 비월남길 4", "lat": 33.481354, "lng": 126.498371}, {"name": "클린하우스", "address": "제주특별자치도 제주시 아연로 27", "lat": 33.479374, "lng": 126.497941}, {"name": "클린하우스", "address": "제주특별자치도 제주시 삼동길 48", "lat": 33.479715, "lng": 126.495676}, {"name": "클린하우스", "address": "제주특별자치도 제주시 연오로 140", "lat": 33.480966, "lng": 126.500833}, {"name": "클린하우스", "address": "제주특별자치도 제주시 연북로 98", "lat": 33.481299, "lng": 126.491482}, {"name": "클린하우스", "address": "제주특별자치도 제주시 과원북4길 85", "lat": 33.481203, "lng": 126.490756}, {"name": "클린하우스", "address": "제주특별자치도 제주시 연동 1504", "lat": 33.479942, "lng": 126.49128}, {"name": "클린하우스", "address": "제주특별자치도 제주시 연동 1499", "lat": 33.478577, "lng": 126.490685}, {"name": "클린하우스", "address": "제주특별자치도 제주시 연동 1517", "lat": 33.478355, "lng": 126.490365}, {"name": "클린하우스", "address": "제주특별자치도 제주시 과원로 60", "lat": 33.476012, "lng": 126.489015}, {"name": "클린하우스", "address": "제주특별자치도 제주시 연동 1357-12", "lat": 33.475394, "lng": 126.487957}, {"name": "클린하우스", "address": "제주특별자치도 제주시 은수길 85", "lat": 33.469245, "lng": 126.487201}, {"name": "클린하우스", "address": "제주특별자치도 제주시 과원로 70", "lat": 33.47583, "lng": 126.49124}, {"name": "클린하우스", "address": "제주특별자치도 제주시 은수길 97", "lat": 33.467702, "lng": 126.487599}, {"name": "클린하우스", "address": "제주특별자치도 제주시 은수길 5", "lat": 33.475706, "lng": 126.48613}, {"name": "클린하우스", "address": "제주특별자치도 제주시 연동 528-7", "lat": 33.480859, "lng": 126.497008}, {"name": "클린하우스", "address": "제주특별자치도 제주시 은수길 33", "lat": 33.473293, "lng": 126.486995}, {"name": "클린하우스", "address": "제주특별자치도 제주시 원노형3길 2", "lat": 33.486852, "lng": 126.486}, {"name": "클린하우스", "address": "제주특별자치도 제주시 원노형3길 2", "lat": 33.486852, "lng": 126.486}, {"name": "클린하우스", "address": "제주특별자치도 제주시 노형동 910-7 ", "lat": 33.486664, "lng": 126.483844}, {"name": "클린하우스", "address": "제주특별자치도 제주시 노형동 912-11 ", "lat": 33.486568, "lng": 126.482356}, {"name": "클린하우스", "address": "제주특별자치도 제주시 진군남4길 5", "lat": 33.476138, "lng": 126.480119}, {"name": "클린하우스", "address": "제주특별자치도 제주시 노형동 932-6 ", "lat": 33.484525, "lng": 126.483384}, {"name": "클린하우스", "address": "제주특별자치도 제주시 원노형로 46", "lat": 33.484807, "lng": 126.484273}, {"name": "클린하우스", "address": "제주특별자치도 제주시 원노형로 35-2", "lat": 33.48525, "lng": 126.486155}, {"name": "클린하우스", "address": "제주특별자치도 제주시 원노형로 35-2", "lat": 33.48525, "lng": 126.486155}, {"name": "클린하우스", "address": "제주특별자치도 제주시 연북로 45", "lat": 33.482425, "lng": 126.486492}, {"name": "클린하우스", "address": "제주특별자치도 제주시 원노형10길 28", "lat": 33.483531, "lng": 126.48615}, {"name": "클린하우스", "address": "제주특별자치도 제주시 노형동 710-4", "lat": 33.482561, "lng": 126.484405}, {"name": "클린하우스", "address": "제주특별자치도 제주시 노형동 1293-2 ", "lat": 33.488791, "lng": 126.482229}, {"name": "클린하우스", "address": "제주특별자치도 제주시 노형동 1274-8 ", "lat": 33.489023, "lng": 126.481547}, {"name": "클린하우스", "address": "제주특별자치도 제주시 노형동 1066-1 ", "lat": 33.488724, "lng": 126.477852}, {"name": "클린하우스", "address": "제주특별자치도 제주시 노형동 1066-1 ", "lat": 33.488424, "lng": 126.477534}, {"name": "클린하우스", "address": "제주특별자치도 제주시 남녕로 63", "lat": 33.492489, "lng": 126.477184}, {"name": "클린하우스", "address": "제주특별자치도 제주시 노형동 1224-1 ", "lat": 33.490986, "lng": 126.475418}, {"name": "클린하우스", "address": "제주특별자치도 제주시 노형동 1041-10 ", "lat": 33.489694, "lng": 126.476338}, {"name": "클린하우스", "address": "제주특별자치도 제주시 월랑북1길 14-3", "lat": 33.492213, "lng": 126.474258}, {"name": "클린하우스", "address": "제주특별자치도 제주시 주르레길 63", "lat": 33.449799, "lng": 126.479627}, {"name": "클린하우스", "address": "제주특별자치도 제주시 노형동 1282-1", "lat": 33.486203, "lng": 126.478056}, {"name": "클린하우스", "address": "제주특별자치도 제주시 노형동 1282-1", "lat": 33.486271, "lng": 126.478094}, {"name": "클린하우스", "address": "제주특별자치도 제주시 노형동 1056-4 ", "lat": 33.487493, "lng": 126.475076}, {"name": "클린하우스", "address": "제주특별자치도 제주시 노형동 1285-2 ", "lat": 33.485337, "lng": 126.476458}, {"name": "클린하우스", "address": "제주특별자치도 제주시 노형동 2531-5 ", "lat": 33.484822, "lng": 126.472695}, {"name": "클린하우스", "address": "제주특별자치도 제주시 노형동 2511-2", "lat": 33.484317, "lng": 126.471269}, {"name": "클린하우스", "address": "제주특별자치도 제주시 노형동 2534-3", "lat": 33.483749, "lng": 126.474093}, {"name": "클린하우스", "address": "제주특별자치도 제주시 노형동 2534-3", "lat": 33.483551, "lng": 126.474276}, {"name": "클린하우스", "address": "제주특별자치도 제주시 노형동 2513-6 ", "lat": 33.482787, "lng": 126.47183}, {"name": "클린하우스", "address": "제주특별자치도 제주시 노형동 2512-2", "lat": 33.483975, "lng": 126.471407}, {"name": "클린하우스", "address": "제주특별자치도 제주시 한라대학로 76", "lat": 33.476198, "lng": 126.478194}, {"name": "클린하우스", "address": "제주특별자치도 제주시 해안동 2523 ", "lat": 33.45515, "lng": 126.451284}, {"name": "클린하우스", "address": "제주특별자치도 제주시 노형동 3403-3", "lat": 33.470152, "lng": 126.468317}, {"name": "클린하우스", "address": "제주특별자치도 제주시 해안동 2094-1 ", "lat": 33.462555, "lng": 126.452613}, {"name": "클린하우스", "address": "제주특별자치도 제주시 광평서길 16", "lat": 33.477681, "lng": 126.465283}, {"name": "클린하우스", "address": "제주특별자치도 제주시 노형동 1461-1 ", "lat": 33.477942, "lng": 126.477487}, {"name": "클린하우스", "address": "제주특별자치도 제주시 노형동 740-2", "lat": 33.479258, "lng": 126.481615}, {"name": "클린하우스", "address": "제주특별자치도 제주시 노형동 2580-1 ", "lat": 33.488919, "lng": 126.474937}, {"name": "클린하우스", "address": "제주특별자치도 제주시 노형동 2575-1 ", "lat": 33.490803, "lng": 126.473156}, {"name": "클린하우스", "address": "제주특별자치도 제주시 노형동 2595-7 ", "lat": 33.481603, "lng": 126.472174}, {"name": "클린하우스", "address": "제주특별자치도 제주시 노형동 2589-1 ", "lat": 33.483675, "lng": 126.469925}, {"name": "클린하우스", "address": "제주특별자치도 제주시 노형4길 38", "lat": 33.481267, "lng": 126.478664}, {"name": "클린하우스", "address": "제주특별자치도 제주시 고사마루길 30", "lat": 33.47791, "lng": 126.471877}, {"name": "클린하우스", "address": "제주특별자치도 제주시 정존11길 30", "lat": 33.481267, "lng": 126.478664}, {"name": "클린하우스", "address": "제주특별자치도 제주시 남녕로 63", "lat": 33.493088, "lng": 126.477783}, {"name": "클린하우스", "address": "제주특별자치도 제주시 해안동 1862-1 ", "lat": 33.452362, "lng": 126.456821}, {"name": "클린하우스", "address": "제주특별자치도 제주시 과원북4길 15", "lat": 33.4814438, "lng": 126.4836066}, {"name": "클린하우스", "address": "제주특별자치도 제주시 과원북4길 15", "lat": 33.4814438, "lng": 126.4836066}, {"name": "클린하우스", "address": "제주특별자치도 제주시 노형동 3511 ", "lat": 33.468567, "lng": 126.462141}, {"name": "클린하우스", "address": "제주특별자치도 제주시 노형동 3803-6", "lat": 33.481377, "lng": 126.475519}, {"name": "클린하우스", "address": "제주특별자치도 제주시 노형동 3800-6", "lat": 33.480296, "lng": 126.477453}, {"name": "클린하우스", "address": "제주특별자치도 제주시 정원로 50", "lat": 33.479077, "lng": 126.476182}, {"name": "클린하우스", "address": "제주특별자치도 제주시 진군길 22", "lat": 33.481299, "lng": 126.480193}, {"name": "클린하우스", "address": "제주특별자치도 제주시 노형동 3782 ", "lat": 33.48417, "lng": 126.478364}, {"name": "클린하우스", "address": "제주특별자치도 제주시 노형동 3798-9 ", "lat": 33.479414, "lng": 126.477822}, {"name": "클린하우스", "address": "제주특별자치도 제주시 노형동 291-2", "lat": 33.450804, "lng": 126.487441}, {"name": "클린하우스", "address": "제주특별자치도 제주시 노형동 571-3", "lat": 33.469097, "lng": 126.484352}, {"name": "클린하우스", "address": "제주특별자치도 제주시 노형동 2661", "lat": 33.481394, "lng": 126.483429}, {"name": "클린하우스", "address": "제주특별자치도 제주시 월랑로 83", "lat": 33.492154, "lng": 126.47179}, {"name": "클린하우스", "address": "제주특별자치도 제주시 노형동 3561", "lat": 33.474741, "lng": 126.460592}, {"name": "클린하우스", "address": "제주특별자치도 제주시 노형동 541-1", "lat": 33.468801, "lng": 126.480144}, {"name": "클린하우스", "address": "제주특별자치도 제주시 정존7길 34", "lat": 33.485905, "lng": 126.473218}, {"name": "클린하우스", "address": "제주특별자치도 제주시 월광로 39", "lat": 33.490455, "lng": 126.530627}, {"name": "클린하우스", "address": "제주특별자치도 제주시 한라대학로 11", "lat": 33.480472, "lng": 126.473557}, {"name": "클린하우스", "address": "제주특별자치도 제주시 1100로 3214", "lat": 33.4735231, "lng": 126.484672}, {"name": "클린하우스", "address": "제주특별자치도 제주시 방일4길 179", "lat": 33.465365, "lng": 126.475846}, {"name": "클린하우스", "address": "제주특별자치도 제주시 월랑로10길 30", "lat": 33.490806, "lng": 126.478312}, {"name": "클린하우스", "address": "제주특별자치도 제주시 남녕로 47", "lat": 33.49149, "lng": 126.479285}, {"name": "클린하우스", "address": "제주특별자치도 제주시 월랑로10길 26", "lat": 33.490577, "lng": 126.478095}, {"name": "클린하우스", "address": "제주특별자치도 제주시 고사마루길 67-4", "lat": 33.4753141, "lng": 126.4730085}, {"name": "클린하우스", "address": "제주특별자치도 제주시 노형동 3795-3", "lat": 33.482575, "lng": 126.475601}, {"name": "클린하우스", "address": "제주특별자치도 제주시 광평안길 40", "lat": 33.490455, "lng": 126.530627}, {"name": "클린하우스", "address": "제주특별자치도 제주시 광평길 18", "lat": 33.481483, "lng": 126.469629}, {"name": "클린하우스", "address": "제주특별자치도 제주시 광평중길 56", "lat": 33.480899, "lng": 126.467964}, {"name": "클린하우스", "address": "제주특별자치도 제주시 노형동 2261-1", "lat": 33.477186, "lng": 126.469067}, {"name": "클린하우스", "address": "제주특별자치도 제주시 해안동 747-4 ", "lat": 33.460876, "lng": 126.464729}, {"name": "클린하우스", "address": "제주특별자치도 제주시 해안동 2482-2 ", "lat": 33.458822, "lng": 126.448297}, {"name": "클린하우스", "address": "제주특별자치도 제주시 해안동 2338-6 ", "lat": 33.464909, "lng": 126.450492}, {"name": "클린하우스", "address": "제주특별자치도 제주시 해안동 2107-3 ", "lat": 33.464216, "lng": 126.452656}, {"name": "클린하우스", "address": "제주특별자치도 제주시 수목원서길 17", "lat": 33.469407, "lng": 126.483278}, {"name": "클린하우스", "address": "제주특별자치도 제주시 노형동 2592-2 ", "lat": 33.482948, "lng": 126.470462}, {"name": "클린하우스", "address": "제주특별자치도 제주시 노형동 904-10 ", "lat": 33.487176, "lng": 126.482435}, {"name": "클린하우스", "address": "제주특별자치도 제주시 월광로 61", "lat": 33.481483, "lng": 126.469629}, {"name": "클린하우스", "address": "제주특별자치도 제주시 해안마을서4길 35", "lat": 33.458495, "lng": 126.450432}, {"name": "클린하우스", "address": "제주특별자치도 제주시 노형동 244-14", "lat": 33.458923, "lng": 126.48528}, {"name": "클린하우스", "address": "제주특별자치도 제주시 외도1동 442-5", "lat": 33.49049, "lng": 126.43023}, {"name": "클린하우스", "address": "제주특별자치도 제주시 외도2동 302-1", "lat": 33.49507884, "lng": 126.4348584}, {"name": "클린하우스", "address": "제주특별자치도 제주시 외도1동 493-1", "lat": 33.4888, "lng": 126.42821}, {"name": "클린하우스", "address": "제주특별자치도 제주시 외도1동 493-1", "lat": 33.4888, "lng": 126.42821}, {"name": "클린하우스", "address": "제주특별자치도 제주시 외도2동 2551", "lat": 33.49230588, "lng": 126.4349878}, {"name": "클린하우스", "address": "제주특별자치도 제주시 외도1동 448-3", "lat": 33.4919111, "lng": 126.4320982}, {"name": "클린하우스", "address": "제주특별자치도 제주시 외도1동 448-3", "lat": 33.4919111, "lng": 126.4320982}, {"name": "클린하우스", "address": "제주특별자치도 제주시 외도1동 482-1", "lat": 33.48997324, "lng": 126.4324311}, {"name": "클린하우스", "address": "제주특별자치도 제주시 외도1동 482-1", "lat": 33.48997324, "lng": 126.4324311}, {"name": "클린하우스", "address": "제주특별자치도 제주시 외도1동 523-3", "lat": 33.48833246, "lng": 126.4318991}, {"name": "클린하우스", "address": "제주특별자치도 제주시 외도1동 634-6", "lat": 33.48578, "lng": 126.43028}, {"name": "클린하우스", "address": "제주특별자치도 제주시 외도1동 634-6", "lat": 33.48578, "lng": 126.43028}, {"name": "클린하우스", "address": "제주특별자치도 제주시 외도1동 632-7", "lat": 33.4914, "lng": 126.43029}, {"name": "클린하우스", "address": "제주특별자치도 제주시 외도1동 492-11", "lat": 33.48702, "lng": 126.42764}, {"name": "클린하우스", "address": "제주특별자치도 제주시 외도1동 496-17", "lat": 33.48796, "lng": 126.4294}, {"name": "클린하우스", "address": "제주특별자치도 제주시 외도1동 455-1", "lat": 33.49024, "lng": 126.42728}, {"name": "클린하우스", "address": "제주특별자치도 제주시 외도1동 440-7", "lat": 33.49057, "lng": 126.42876}, {"name": "클린하우스", "address": "제주특별자치도 제주시 외도1동 417-6", "lat": 33.4914, "lng": 126.43029}, {"name": "클린하우스", "address": "제주특별자치도 제주시 외도1동 1666-3", "lat": 33.48836, "lng": 126.42605}, {"name": "클린하우스", "address": "제주특별자치도 제주시 연대마을길 25 ", "lat": 33.49395013, "lng": 126.4262537}, {"name": "클린하우스", "address": "제주특별자치도 제주시 연대마을길 65-1", "lat": 33.49336835, "lng": 126.424075}, {"name": "클린하우스", "address": "제주특별자치도 제주시 대통길 96 ", "lat": 33.48529986, "lng": 126.4460254}, {"name": "클린하우스", "address": "제주특별자치도 제주시 도평동 876-4", "lat": 33.47931195, "lng": 126.4480593}, {"name": "클린하우스", "address": "제주특별자치도 제주시 도평동 935-6", "lat": 33.47856352, "lng": 126.4516755}, {"name": "클린하우스", "address": "제주특별자치도 제주시 도평동 579-1", "lat": 33.489396, "lng": 126.4503887}, {"name": "클린하우스", "address": "제주특별자치도 제주시 내도7길 4", "lat": 33.49345513, "lng": 126.4422655}, {"name": "클린하우스", "address": "제주특별자치도 제주시 외도1동 438-3", "lat": 33.49168, "lng": 126.42811}, {"name": "클린하우스", "address": "제주특별자치도 제주시 외도1동 530-1", "lat": 33.48871534, "lng": 126.4330982}, {"name": "클린하우스", "address": "제주특별자치도 제주시 외도1동 417-6", "lat": 33.4914, "lng": 126.43029}, {"name": "클린하우스", "address": "제주특별자치도 제주시 외도2동 332-2", "lat": 33.49416681, "lng": 126.4327439}, {"name": "클린하우스", "address": "제주특별자치도 제주시 외동1동 453-1", "lat": 33.49123885, "lng": 126.4340766}, {"name": "클린하우스", "address": "제주특별자치도 제주시 외도1동 632-7", "lat": 33.48589, "lng": 126.42876}, {"name": "클린하우스", "address": "제주특별자치도 제주시 내도동 231", "lat": 33.48987322, "lng": 126.4410423}, {"name": "클린하우스", "address": "제주특별자치도 제주시 외도1동 523-3", "lat": 33.48837491, "lng": 126.4325166}, {"name": "클린하우스", "address": "제주특별자치도 제주시 외도2동 233-8", "lat": 33.493027, "lng": 126.4327169}, {"name": "클린하우스", "address": "제주특별자치도 제주시 도평동 1180-1", "lat": 33.47031999, "lng": 126.4456961}, {"name": "클린하우스", "address": "제주특별자치도 제주시 외도1동 2252-1", "lat": 33.48424, "lng": 126.4215}, {"name": "클린하우스", "address": "제주특별자치도 제주시 도평동 355-2", "lat": 33.47905115, "lng": 126.4569762}, {"name": "클린하우스", "address": "제주특별자치도 제주시 외도1동 2275-3", "lat": 33.48581, "lng": 126.42468}, {"name": "클린하우스", "address": "제주특별자치도 제주시 내도동 292-6", "lat": 33.49261539, "lng": 126.4434859}, {"name": "클린하우스", "address": "제주특별자치도 제주시 테우해안로 65", "lat": 33.49680185, "lng": 126.441493}, {"name": "클린하우스", "address": "제주특별자치도 제주시 도근내길 67", "lat": 33.49235306, "lng": 126.437955}, {"name": "클린하우스", "address": "제주특별자치도 제주시 외도1동 630", "lat": 33.48524267, "lng": 126.4342711}, {"name": "클린하우스", "address": "제주특별자치도 제주시 내도3길 4", "lat": 33.4942043, "lng": 126.4394928}, {"name": "클린하우스", "address": "제주특별자치도 제주시 내도동 533-3", "lat": 33.49524823, "lng": 126.4365372}, {"name": "클린하우스", "address": "제주특별자치도 제주시 통물길 122", "lat": 33.48239509, "lng": 126.4382878}, {"name": "클린하우스", "address": "제주특별자치도 제주시 도평동 1258-2", "lat": 33.47783362, "lng": 126.4433236}, {"name": "클린하우스", "address": "제주특별자치도 제주시 도평동 1346-1", "lat": 33.48217647, "lng": 126.4441226}, {"name": "클린하우스", "address": "제주특별자치도 제주시 내도동 14-2", "lat": 33.49400311, "lng": 126.4473631}, {"name": "클린하우스", "address": "제주특별자치도 제주시 외도2동 2030-3", "lat": 33.49150703, "lng": 126.4227633}, {"name": "클린하우스", "address": "제주특별자치도 제주시 내도동 363-3", "lat": 33.49387796, "lng": 126.4445881}, {"name": "클린하우스", "address": "제주특별자치도 제주시 우평로 311", "lat": 33.48390959, "lng": 126.4341047}, {"name": "클린하우스", "address": "제주특별자치도 제주시 도평동 1024", "lat": 33.47445294, "lng": 126.4483396}, {"name": "클린하우스", "address": "제주특별자치도 제주시 도평동 424-3", "lat": 33.48119622, "lng": 126.4563334}, {"name": "클린하우스", "address": "제주특별자치도 제주시 도평동 956-2", "lat": 33.47583059, "lng": 126.4508661}, {"name": "클린하우스", "address": "제주특별자치도 제주시 신산마을길 118", "lat": 33.4856155, "lng": 126.4529604}, {"name": "클린하우스", "address": "제주특별자치도 제주시 이호1동 584-5", "lat": 33.50068423, "lng": 126.4611009}, {"name": "클린하우스", "address": "제주특별자치도 제주시 이호1동 328-3", "lat": 33.50233215, "lng": 126.4609698}, {"name": "클린하우스", "address": "제주특별자치도 제주시 이호1동 495-2", "lat": 33.50199629, "lng": 126.4589552}, {"name": "클린하우스", "address": "제주특별자치도 제주시 이호1동 361-3", "lat": 33.50258338, "lng": 126.4577435}, {"name": "클린하우스", "address": "제주특별자치도 제주시 이호1동 375-27", "lat": 33.50197306, "lng": 126.4561452}, {"name": "클린하우스", "address": "제주특별자치도 제주시 백포서길5", "lat": 33.4996541, "lng": 126.4582188}, {"name": "클린하우스", "address": "제주특별자치도 제주시 이호1동 665-11", "lat": 33.4984665, "lng": 126.4580246}, {"name": "클린하우스", "address": "제주특별자치도 제주시 이호1동 748-3", "lat": 33.49718365, "lng": 126.4924029}, {"name": "클린하우스", "address": "제주특별자치도 제주시 이호1동1652-1", "lat": 33.49660096, "lng": 126.4549217}, {"name": "클린하우스", "address": "제주특별자치도 제주시 이호1동 1668-1", "lat": 33.49640233, "lng": 126.4521725}, {"name": "클린하우스", "address": "제주특별자치도 제주시 이호1동 1781-5", "lat": 33.49701397, "lng": 126.5022367}, {"name": "클린하우스", "address": "제주특별자치도 제주시 이호1동 1923-3", "lat": 33.49507018, "lng": 126.4507089}, {"name": "클린하우스", "address": "제주특별자치도 제주시 이호1동 1788-10", "lat": 33.4980049, "lng": 126.4473172}, {"name": "클린하우스", "address": "제주특별자치도 제주시 이호2동 1414-2", "lat": 33.49291647, "lng": 126.4549154}, {"name": "클린하우스", "address": "제주특별자치도 제주시 이호2동 113-1", "lat": 33.49401, "lng": 126.46347}, {"name": "클린하우스", "address": "제주특별자치도 제주시 이호2동 112-2", "lat": 33.49324, "lng": 126.46331}, {"name": "클린하우스", "address": "제주특별자치도 제주시 이호2동 802-7", "lat": 33.4951, "lng": 126.46094}, {"name": "클린하우스", "address": "제주특별자치도 제주시 이호2동 845-9", "lat": 33.49410755, "lng": 126.459887}, {"name": "클린하우스", "address": "제주특별자치도 제주시 이호2동 883-6", "lat": 33.49284864, "lng": 126.4592642}, {"name": "클린하우스", "address": "제주특별자치도 제주시 이호2동 1099-1 ", "lat": 33.49043918, "lng": 126.4611346}, {"name": "클린하우스", "address": "제주특별자치도 제주시 이호2동 1006-3", "lat": 33.49128888, "lng": 126.4588225}, {"name": "클린하우스", "address": "제주특별자치도 제주시 이호2동 1163-8", "lat": 33.48608253, "lng": 126.4605003}, {"name": "클린하우스", "address": "제주특별자치도 제주시 서해안로 45-18", "lat": 33.50009025, "lng": 126.4549699}, {"name": "클린하우스", "address": "제주특별자치도 제주시 일주서로 7510", "lat": 33.49437844, "lng": 126.4488914}, {"name": "클린하우스", "address": "제주특별자치도 제주시 이호1동 1788-10", "lat": 33.49765736, "lng": 126.4419385}, {"name": "클린하우스", "address": "제주특별자치도 제주시 이호1동 375-36", "lat": 33.50095695, "lng": 126.4555413}, {"name": "클린하우스", "address": "제주특별자치도 제주시 이호2동 861-3", "lat": 33.49518, "lng": 126.45899}, {"name": "클린하우스", "address": "제주특별자치도 제주시 도두1동 1876", "lat": 33.50443876, "lng": 126.4711531}, {"name": "클린하우스", "address": "제주특별자치도 제주시 도두1동 1980-1", "lat": 33.50309168, "lng": 126.4686944}, {"name": "클린하우스", "address": "제주특별자치도 제주시 오래물길 4", "lat": 33.50220551, "lng": 126.4668669}, {"name": "클린하우스", "address": "제주특별자치도 제주시 도두1동 2620", "lat": 33.50380079, "lng": 126.4645355}, {"name": "클린하우스", "address": "제주특별자치도 제주시 서해안로 170", "lat": 33.5042009, "lng": 126.4671889}, {"name": "클린하우스", "address": "제주특별자치도 제주시 도두1동 2605-5", "lat": 33.5050574, "lng": 126.4670849}, {"name": "클린하우스", "address": "제주특별자치도 제주시 도두항길 8", "lat": 33.50425509, "lng": 126.4671758}, {"name": "클린하우스", "address": "제주특별자치도 제주시 도두1동 1741-4", "lat": 33.50807313, "lng": 126.4700574}, {"name": "클린하우스", "address": "제주특별자치도 제주시 도두2동 1652-5", "lat": 33.50807313, "lng": 126.474822}, {"name": "클린하우스", "address": "제주특별자치도 제주시 서해안로 301-8", "lat": 33.50961033, "lng": 126.4777596}, {"name": "클린하우스", "address": "제주특별자치도 제주시 서해안로 346-8", "lat": 33.5098125, "lng": 126.481571}, {"name": "클린하우스", "address": "제주특별자치도 제주시 도두1동 1201-2", "lat": 33.4957595, "lng": 126.4743726}, {"name": "클린하우스", "address": "제주특별자치도 제주시 도두2동 177-2", "lat": 33.49525816, "lng": 126.4888179}, {"name": "클린하우스", "address": "제주특별자치도 제주시 도두2동 90-8", "lat": 33.50116626, "lng": 126.4907153}, {"name": "클린하우스", "address": "제주특별자치도 제주시 도두1동 1806-1 ", "lat": 33.50404785, "lng": 126.4690672}, {"name": "클린하우스", "address": "제주특별자치도 제주시 신성마을1길 28", "lat": 33.49514425, "lng": 126.4860506}, {"name": "클린하우스", "address": "제주특별자치도 제주시 일주서로 7735", "lat": 33.4938958, "lng": 126.4728529}, {"name": "클린하우스", "address": "제주특별자치도 제주시 도리로 129", "lat": 33.5015453, "lng": 126.4655106}, {"name": "클린하우스", "address": "제주특별자치도 제주시 신성마을1길 62", "lat": 33.49576051, "lng": 126.4834247}, {"name": "클린하우스", "address": "제주특별자치도 제주시 도공로 141", "lat": 33.49597775, "lng": 126.4685224}, {"name": "클린하우스", "address": "제주특별자치도 제주시 일주서로 7719", "lat": 33.49437647, "lng": 126.4709845}, {"name": "클린하우스", "address": "제주특별자치도 제주시 서해안로 133", "lat": 33.50288143, "lng": 12646377258.0}, {"name": "재활용도움센터", "address": "제주특별자치도 제주시 한림읍 한림남길 12", "lat": 33.41106, "lng": 126.26897}, {"name": "재활용도움센터", "address": "제주특별자치도 제주시 애월읍 고내로 14", "lat": 33.4630874, "lng": 126.3391248}, {"name": "재활용도움센터", "address": "제주특별자치도 제주시 애월읍 하귀동남3길 16", "lat": 33.48368389, "lng": 126.4140818}, {"name": "재활용도움센터", "address": "제주특별자치도 제주시 애월읍 애월해안로 7", "lat": 33.46516102, "lng": 126.3165215}, {"name": "재활용도움센터", "address": "제주특별자치도 제주시 애월읍 곽지3길 13", "lat": 33.44826, "lng": 126.30565}, {"name": "재활용도움센터", "address": "제주특별자치도 제주시 애월읍 중엄3길 17", "lat": 33.47509577, "lng": 126.3728763}, {"name": "재활용도움센터", "address": "제주특별자치도 제주시 애월읍 고하상로 144", "lat": 33.454, "lng": 126.3497}, {"name": "재활용도움센터", "address": "제주특별자치도 제주시 구좌읍 종달논길 31-10", "lat": 3349264301.0, "lng": 126.9016944}, {"name": "재활용도움센터", "address": "제주특별자치도 제주시 구좌읍 문주란로 68", "lat": 33.519896, "lng": 126.8895076}, {"name": "재활용도움센터", "address": "제주특별자치도 제주시 조천읍 조천18길 5-5", "lat": 33.53999678, "lng": 126.6434894}, {"name": "재활용도움센터", "address": "제주특별자치도 제주시 조천읍 중산간동로 924", "lat": 33.49163112, "lng": 126.680288}, {"name": "재활용도움센터", "address": "제주특별자치도 제주시 조천읍 와흘4길 33-1", "lat": 33.50581359, "lng": 126.633172}, {"name": "재활용도움센터", "address": "제주특별자치도 제주시 조천읍 조함해안로 532-3", "lat": 33.5420049, "lng": 126.669722}, {"name": "재활용도움센터", "address": "제주특별자치도 제주시 조천읍 조함해안로 302", "lat": 33.5485466, "lng": 126.6506819}, {"name": "재활용도움센터", "address": "제주특별자치도 제주시 우도면 조일길 123-5", "lat": 33.511, "lng": 126.96008}, {"name": "재활용도움센터", "address": "제주특별자치도 제주시 도남로5길 25", "lat": 33.497649, "lng": 126.528419}, {"name": "재활용도움센터", "address": "제주특별자치도 제주시 광양9길 65", "lat": 33.501937, "lng": 126.536103}, {"name": "재활용도움센터", "address": "제주특별자치도 제주시 독짓골8길 34", "lat": 33.481483, "lng": 126.469629}, {"name": "재활용도움센터", "address": "제주특별자치도 제주시 신설동길 40-10", "lat": 33.49482, "lng": 126.549639}, {"name": "재활용도움센터", "address": "제주특별자치도 제주시 서광로25길 16", "lat": 33.500991, "lng": 126.523496}, {"name": "재활용도움센터", "address": "제주특별자치도 제주시 서광로5길 26", "lat": 33.502373, "lng": 126.514433}, {"name": "재활용도움센터", "address": "제주특별자치도 제주시 용해로 16", "lat": 33.515816, "lng": 126.502275}, {"name": "재활용도움센터", "address": "제주특별자치도 제주시 선반로10길 14", "lat": 33.514044, "lng": 126.56673}, {"name": "재활용도움센터", "address": "제주특별자치도 제주시 지석10길 18", "lat": 33.519725, "lng": 126.582756}, {"name": "재활용도움센터", "address": "제주특별자치도 제주시 화삼로 47", "lat": 33.514536, "lng": 126.578068}, {"name": "재활용도움센터", "address": "제주특별자치도 제주시 산천단동길 4", "lat": 33.4477396, "lng": 126.5567378}, {"name": "재활용도움센터", "address": "제주특별자치도 제주시 인다14길 20", "lat": 33.47148494, "lng": 126.5476333}, {"name": "재활용도움센터", "address": "제주특별자치도 제주시 아연로 165", "lat": 33.4714802, "lng": 126.5086172}, {"name": "재활용도움센터", "address": "제주특별자치도 제주시 오라로 115", "lat": 33.49452252, "lng": 126.514874}, {"name": "재활용도움센터", "address": "제주특별자치도 제주시 은남1길 45", "lat": 33.489196, "lng": 126.490974}, {"name": "재활용도움센터", "address": "제주특별자치도 제주시 귀아랑길 33", "lat": 33.490556, "lng": 126.497382}, {"name": "재활용도움센터", "address": "제주특별자치도 제주시 연동14길 32", "lat": 33.482885, "lng": 126.49474}, {"name": "재활용도움센터", "address": "제주특별자치도 제주시 신대로16길 22", "lat": 33.486824, "lng": 126.494352}, {"name": "재활용도움센터", "address": "제주특별자치도 제주시 진군3길 10", "lat": 33.477809, "lng": 126.479766}, {"name": "재활용도움센터", "address": "제주특별자치도 제주시 우평로 10", "lat": 33.479269, "lng": 126.464613}, {"name": "재활용도움센터", "address": "제주특별자치도 제주시 원노형9길 3", "lat": 33.488847, "lng": 126.484949}, {"name": "재활용도움센터", "address": "제주특별자치도 제주시 월랑로2길 1", "lat": 33.487257, "lng": 126.479411}, {"name": "재활용도움센터", "address": "제주특별자치도 제주시 신비마을1길 6", "lat": 33.445884, "lng": 126.480156}, {"name": "재활용도움센터", "address": "제주특별자치도 제주시 오일장동길 51", "lat": 33.4973155, "lng": 126.4763731}, {"name": "재활용도움센터", "address": "제주특별자치도 제주시 도공로 3", "lat": 33.50589801, "lng": 126.4653149}, {"name": "재활용도움센터", "address": "제주특별자치도 제주시 선사로8길 25", "lat": 33.52628361, "lng": 126.587972}, {"name": "재활용도움센터", "address": "제주특별자치도 제주시 오도4길 33", "lat": 33.49239, "lng": 126.4569}, {"name": "클린하우스", "address": "제주특별자치도 제주시 종천길 61", "lat": 33.46987551, "lng": 126.5019624}, {"name": "재활용도움센터", "address": "제주특별자치도 제주시 외도1동 559-1", "lat": 33.48694634, "lng": 126.4316713}, {"name": "재활용도움센터", "address": "제주특별자치도 제주시 동명2길 27", "lat": 33.40494915, "lng": 126.2609274}, {"name": "재활용도움센터", "address": "제주특별자치도 제주시 초천읍 중산간동로 604", "lat": 33.49905872, "lng": 126.6499897}, {"name": "재활용도움센터", "address": "제주특별자치도 제주시 조천읍 중산간동로 1241", "lat": 33.5114293, "lng": 126.7010599}, {"name": "재활용도움센터", "address": "제주특별자치도 제주시 구좌읍 중산간동로 2202-14", "lat": 33.5114293, "lng": 126.7010599}, {"name": "재활용도움센터", "address": "제주특별자치도 제주시 구좌읍 동복로 75-10", "lat": 33.55374273, "lng": 126.714105}, {"name": "재활용도움센터", "address": "제주특별자치도 제주시 구좌읍 김녕로8길 32-8", "lat": 33.5519349, "lng": 126.7488221}, {"name": "클린하우스", "address": "제주특별자치도 제주시 오등동 1834-96", "lat": 33.44713415, "lng": 126.5227532}, {"name": "재활용도움센터", "address": "제주특별자치도 제주시 추자면 대서리 147-16", "lat": 33.96158439, "lng": 126.2941634}, {"name": "재활용도움센터", "address": "제주특별자치도 제주시 수덕5길 34", "lat": 33.485729, "lng": 126.47464}, {"name": "재활용도움센터", "address": "제주특별자치도 제주시 전농로1길 26", "lat": 33.506445, "lng": 126.515313}, {"name": "클린하우스", "address": "제주특별자치도 제주시 신광로 87", "lat": 33.484508, "lng": 126.490521}, {"name": "재활용도움센터", "address": "제주특별자치도 제주시 원노형2길 33-6", "lat": 33.482627, "lng": 126.482254}, {"name": "재활용도움센터", "address": "제주특별자치도 제주시 성지로 32", "lat": 33.510407, "lng": 126.526929}, {"name": "대정읍", "address": "제주특별자치도 서귀포시 대정읍 하모리 814-2", "lat": "33.2212132764559", "lng": "126.255570391505"}, {"name": "대정읍", "address": "제주특별자치도 서귀포시 대정읍 송악관광로 411번길 3 (서귀포시 대정읍 상모리 125-1)", "lat": "33.2089411800591", "lng": "126.290332828488"}, {"name": "대정읍", "address": "제주특별자치도 서귀포시 대정읍 상모리 2652-1", "lat": 0, "lng": 0}, {"name": "대정읍", "address": "제주특별자치도 서귀포시 대정읍 무릉리 132-1", "lat": "33.2783612854013", "lng": "126.246098206172"}, {"name": "대정읍", "address": "제주특별자치도 서귀포시 대정읍 무릉리 569-2", "lat": "33.2739291673801", "lng": "126.233798409952"}, {"name": "대정읍", "address": "제주특별자치도 서귀포시 대정읍 무릉리 973-1", "lat": "33.2811049552465", "lng": "126.223873775636"}, {"name": "대정읍", "address": "제주특별자치도 서귀포시 대정읍 동일리 274", "lat": "33.2578389788001", "lng": "126.236915598747"}, {"name": "대정읍", "address": "제주특별자치도 서귀포시 대정읍 신도리 2072-13", "lat": "33.2843427488231", "lng": "126.184535316921"}, {"name": "대정읍", "address": "제주특별자치도 서귀포시 대정읍 비자낭로 8 (서귀포시 대정읍 신도리 2067-24)", "lat": "33.2866973775061", "lng": "126.184509766997"}, {"name": "대정읍", "address": "제주특별자치도 서귀포시 대정읍 신도리 1920-9", "lat": "33.287445963463", "lng": "126.186502959028"}, {"name": "대정읍", "address": "제주특별자치도 서귀포시 대정읍 신도리 3074", "lat": "33.2762941213727", "lng": "126.171263148261"}, {"name": "대정읍", "address": "제주특별자치도 서귀포시 대정읍 신도리 2633-4", "lat": "33.2801258098507", "lng": "126.175042283917"}, {"name": "대정읍", "address": "제주특별자치도 서귀포시 대정읍 신도리 3094-1", "lat": "33.276812006959", "lng": "126.173254622499"}, {"name": "대정읍", "address": "제주특별자치도 서귀포시 대정읍 영락리 279-2", "lat": "33.2630524712106", "lng": "126.219333996206"}, {"name": "대정읍", "address": "제주특별자치도 서귀포시 대정읍 영락리 1656-2", "lat": "33.2522279492251", "lng": "126.204647126951"}, {"name": "대정읍", "address": "제주특별자치도 서귀포시 대정읍 안성리 1476-2", "lat": "33.2502112556886", "lng": "126.28200083825"}, {"name": "대정읍", "address": "제주특별자치도 서귀포시 대정읍 일과리 산 1-8", "lat": "33.2560095264169", "lng": "126.225308697513"}, {"name": "대정읍", "address": "제주특별자치도 서귀포시 대정읍 하모리 2121-28", "lat": "33.2267750353415", "lng": "126.2499220236"}, {"name": "대정읍", "address": "제주특별자치도 서귀포시 대정읍 상모리 3675-1", "lat": "33.2304710420949", "lng": "126.258952438498"}, {"name": "대정읍", "address": "제주특별자치도 서귀포시 대정읍 하모리 566-3", "lat": "33.2155004080185", "lng": "126.257310956341"}, {"name": "대정읍", "address": "제주특별자치도 서귀포시 대정읍 가파리 70-7", "lat": "33.1662610455946", "lng": "126.273839732844"}, {"name": "대정읍", "address": "제주특별자치도 서귀포시 대정읍 가파리 210", "lat": "33.1742187443373", "lng": "126.269857725069"}, {"name": "대정읍", "address": "제주특별자치도 서귀포시 대정읍 하모리 1077-1", "lat": "33.2216553552773", "lng": "126.249585014265"}, {"name": "대정읍", "address": "제주특별자치도 서귀포시 대정읍 상모리 3086", "lat": "33.2230221640598", "lng": "126.2617858863"}, {"name": "대정읍", "address": "제주특별자치도 서귀포시 대정읍 구억리 788-2", "lat": "33.2789862423644", "lng": "126.283517587356"}, {"name": "대정읍", "address": "제주특별자치도 서귀포시 대정읍 상모리 3970-2", "lat": "33.222565204629", "lng": "126.257252871739"}, {"name": "대정읍", "address": "제주특별자치도 서귀포시 대정읍 일과리 1303-8", "lat": "33.2389922726634", "lng": "126.230386516269"}, {"name": "대정읍", "address": "제주특별자치도 서귀포시 대정읍 하모리 1401-2", "lat": "33.2273132311536", "lng": "126.254846839084"}, {"name": "대정읍", "address": "제주특별자치도 서귀포시 대정읍 보성리 2403", "lat": "33.29084614072", "lng": "126.282512761069"}, {"name": "대정읍", "address": "제주특별자치도 서귀포시 대정읍 구억리 1101", "lat": "33.2957349589679", "lng": "126.291129315983"}, {"name": "대정읍", "address": "제주특별자치도 서귀포시 대정읍 보성리 2445-6", "lat": "33.2813047916898", "lng": "126.275625931482"}, {"name": "대정읍", "address": "제주특별자치도 서귀포시 대정읍 하모리 765-7", "lat": "33.2184526270566", "lng": "126.253043715961"}, {"name": "대정읍", "address": "제주특별자치도 서귀포시 대정읍 상모리 2669-3", "lat": "33.2247132675185", "lng": "126.268094233379"}, {"name": "대정읍", "address": "제주특별자치도 서귀포시 대정읍 무릉리 1139-3", "lat": "33.2769474373883", "lng": "126.231835555774"}, {"name": "대정읍", "address": "제주특별자치도 서귀포시 대정읍 하모리 1173-1", "lat": "33.2236803543552", "lng": "126.248087568458"}, {"name": "대정읍", "address": "제주특별자치도 서귀포시 대정읍 일과리 253-3", "lat": "33.2350835446216", "lng": "126.243144572602"}, {"name": "대정읍", "address": "제주특별자치도 서귀포시 대정읍 일과리 930", "lat": "33.2438701559999", "lng": "126.233115484639"}, {"name": "대정읍", "address": "제주특별자치도 서귀포시 대정읍 안성리 1561-2", "lat": "33.247998797336", "lng": "126.28494433912"}, {"name": "대정읍", "address": "제주특별자치도 서귀포시 대정읍 하모리 1331-3", "lat": "33.2301115241697", "lng": "126.253110579971"}, {"name": "대정읍", "address": "제주특별자치도 서귀포시 대정읍 하모리 909", "lat": "33.2223085389876", "lng": "126.253070161212"}, {"name": "대정읍", "address": "제주특별자치도 서귀포시 대정읍 인성리 373-1", "lat": "33.2459916362696", "lng": "126.277442440578"}, {"name": "대정읍", "address": "제주특별자치도 서귀포시 대정읍 하모리 646-20", "lat": "33.2105460728876", "lng": "126.257605181651"}, {"name": "대정읍", "address": "제주특별자치도 서귀포시 대정읍 가파리 526-1", "lat": "33.1662298901013", "lng": "126.269023448418"}, {"name": "남원읍", "address": "제주특별자치도 서귀포시 남원읍 남원리 1310-3", "lat": "33.2787034869157", "lng": "126.713541060272"}, {"name": "남원읍", "address": "제주특별자치도 서귀포시 남원읍 위미리 2885-5", "lat": "33.2749835284932", "lng": "126.657310915072"}, {"name": "남원읍", "address": "제주특별자치도 서귀포시 남원읍 하례리 36-5", "lat": "33.2620508027457", "lng": "126.637751689264"}, {"name": "남원읍", "address": "제주특별자치도 서귀포시 남원읍 일주동로 8058 (서귀포시 남원읍 하례리 349-3)", "lat": "33.2638053201331", "lng": "126.625318244449"}, {"name": "남원읍", "address": "제주특별자치도 서귀포시 남원읍 하례리 605-3", "lat": 0, "lng": 0}, {"name": "남원읍", "address": "제주특별자치도 서귀포시 남원읍 수망리 313-1", "lat": "33.3281291075299", "lng": "126.713331958727"}, {"name": "남원읍", "address": "제주특별자치도 서귀포시 남원읍 남원리 1352-1", "lat": "33.2774984151674", "lng": "126.715486601191"}, {"name": "남원읍", "address": "제주특별자치도 서귀포시 남원읍 남원리 207-10", "lat": "33.28064902313", "lng": "126.720790760623"}, {"name": "남원읍", "address": "제주특별자치도 서귀포시 남원읍 남원리 205-18", "lat": 0, "lng": 0}, {"name": "남원읍", "address": "제주특별자치도 서귀포시 남원읍 남위남성로 10 (서귀포시 남원읍 남원리 1148-3)", "lat": 0, "lng": 0}, {"name": "남원읍", "address": "제주특별자치도 서귀포시 남원읍 남원체육관로 100 (서귀포시 남원읍 남원리 2303-1)", "lat": "33.2774651786639", "lng": "126.69607163746"}, {"name": "남원읍", "address": "제주특별자치도 서귀포시 남원읍 태위로 726 (서귀포시 남원읍 남원리 70-3)", "lat": "33.2803935591685", "lng": "126.723884848747"}, {"name": "남원읍", "address": "제주특별자치도 서귀포시 남원읍 위미리 4140-5", "lat": "33.2742974546448", "lng": "126.651786439654"}, {"name": "남원읍", "address": "제주특별자치도 서귀포시 남원읍 신례리 26-7", "lat": "33.2670762919541", "lng": "126.643829060713"}, {"name": "남원읍", "address": "제주특별자치도 서귀포시 남원읍 신례리 74", "lat": "33.2631129471641", "lng": "126.639465566115"}, {"name": "남원읍", "address": "제주특별자치도 서귀포시 남원읍 신례리 72-19", "lat": "33.262681279085", "lng": "126.641410220915"}, {"name": "남원읍", "address": "제주특별자치도 서귀포시 남원읍 태흥리 950-3", "lat": "33.2859252631713", "lng": "126.740504820493"}, {"name": "남원읍", "address": "제주특별자치도 서귀포시 남원읍 신례리 730-1", "lat": "33.2830327614516", "lng": "126.629230229177"}, {"name": "남원읍", "address": "제주특별자치도 서귀포시 남원읍 위미리 491-1", "lat": "33.2919744512234", "lng": "126.679159951555"}, {"name": "남원읍", "address": "제주특별자치도 서귀포시 남원읍 위미해안로 43 (서귀포시 남원읍 위미리 2937-2)", "lat": "33.2710210540848", "lng": "126.658692433759"}, {"name": "남원읍", "address": "제주특별자치도 서귀포시 남원읍 위미리 2061-2", "lat": "33.2798788548155", "lng": "126.664255034414"}, {"name": "남원읍", "address": "제주특별자치도 서귀포시 남원읍 태위로 194 (서귀포시 남원읍 위미리 1664-3)", "lat": "33.2749682374024", "lng": "126.667990332456"}, {"name": "남원읍", "address": "제주특별자치도 서귀포시 남원읍 남원리 84-2", "lat": "33.2787907936642", "lng": "126.721368711389"}, {"name": "남원읍", "address": "제주특별자치도 서귀포시 남원읍 남원체육관로 221번길 16 (서귀포시 남원읍 남원리 1500)", "lat": "33.2809667094964", "lng": "126.7090917812"}, {"name": "남원읍", "address": "제주특별자치도 서귀포시 남원읍 남원리 1226-2", "lat": "33.2841125792778", "lng": "126.715238633532"}, {"name": "남원읍", "address": "제주특별자치도 서귀포시 남원읍 남원리 1451-4", "lat": "33.2757753920014", "lng": "126.706181836744"}, {"name": "남원읍", "address": "제주특별자치도 서귀포시 남원읍 남원리 19-6", "lat": "33.2820184861009", "lng": "126.722308805927"}, {"name": "남원읍", "address": "제주특별자치도 서귀포시 남원읍 의귀리 1434 맞은편", "lat": "33.3094194966998", "lng": "126.71256700715"}, {"name": "남원읍", "address": "제주특별자치도 서귀포시 남원읍 한남리 58", "lat": "33.3130435642617", "lng": "126.700232501457"}, {"name": "남원읍", "address": "제주특별자치도 서귀포시 남원읍 태흥리 1804-1", "lat": "33.2823590346875", "lng": "126.730544551811"}, {"name": "남원읍", "address": "제주특별자치도 서귀포시 남원읍 태흥중동로 31 (서귀포시 남원읍 태흥리 1264-2)", "lat": "33.2858015188997", "lng": "126.733707417321"}, {"name": "남원읍", "address": "제주특별자치도 서귀포시 남원읍 태위로 834번길 3 (서귀포시 남원읍 태흥리 1337)", "lat": "33.2833341661052", "lng": "126.734871063113"}, {"name": "남원읍", "address": "제주특별자치도 서귀포시 남원읍 서의로 20 (서귀포시 남원읍 남원리 381)", "lat": "33.2941878437868", "lng": "126.711443706309"}, {"name": "남원읍", "address": "제주특별자치도 서귀포시 남원읍 남한로 140번길 7 (서귀포시 남원읍 남원리 314-1)", "lat": 0, "lng": 0}, {"name": "남원읍", "address": "제주특별자치도 서귀포시 남원읍 신례천로 124(서귀포시 남원읍 신례리 1223 맞은편)", "lat": "33.293113664741", "lng": "126.625316589984"}, {"name": "남원읍", "address": "제주특별자치도 서귀포시 남원읍 의귀리 1628-2", "lat": "33.314918629396", "lng": "126.715434262443"}, {"name": "남원읍", "address": "제주특별자치도 서귀포시 남원읍 의귀리 964-1", "lat": "33.3020716432546", "lng": "126.719456279571"}, {"name": "남원읍", "address": "제주특별자치도 서귀포시 남원읍 한신로 207 (서귀포시 남원읍 의귀리 1482-5)", "lat": "33.3104438264341", "lng": "126.713421739819"}, {"name": "남원읍", "address": "제주특별자치도 서귀포시 남원읍 신흥리 1263-2", "lat": "33.3208163147147", "lng": "126.749187483739"}, {"name": "남원읍", "address": "제주특별자치도 서귀포시 남원읍 태신로 14 (서귀포시 남원읍 태흥리 571)", "lat": "33.2877146364672", "lng": "126.745165377739"}, {"name": "성산읍", "address": "제주특별자치도 서귀포시 성산읍 고성 중앙로 65-1 (서귀포시 성산읍 고성리 1085)", "lat": 0, "lng": 0}, {"name": "성산읍", "address": "제주특별자치도 서귀포시 성산읍 고성리 1090-22", "lat": "33.4481786162689", "lng": "126.91154993792"}, {"name": "성산읍", "address": "제주특별자치도 서귀포시 성산읍 신풍리 505-2", "lat": "33.3627156822195", "lng": "126.840607406654"}, {"name": "성산읍", "address": "제주특별자치도 서귀포시 성산읍 서성일로 1186-6(서귀포시 성산읍 고성리 1618-1)", "lat": "33.4454208922237", "lng": "126.90513335141"}, {"name": "성산읍", "address": "제주특별자치도 서귀포시 성산읍 시흥리 763-3", "lat": "33.4739682985502", "lng": "126.899311424293"}, {"name": "성산읍", "address": "제주특별자치도 서귀포시 성산읍 시흥리 109-3", "lat": "33.4738766340429", "lng": "126.904123876701"}, {"name": "성산읍", "address": "제주특별자치도 서귀포시 성산읍 시흥리 980-36", "lat": "33.4754738277859", "lng": "126.900346382762"}, {"name": "성산읍", "address": "제주특별자치도 서귀포시 성산읍 시흥리 575-4", "lat": "33.4731456056572", "lng": "126.895848841086"}, {"name": "성산읍", "address": "제주특별자치도 서귀포시 성산읍 시흥리 700-1", "lat": "33.4721723048992", "lng": "126.899767605208"}, {"name": "성산읍", "address": "제주특별자치도 서귀포시 성산읍 오조리 61-26", "lat": "33.4534318115422", "lng": "126.914314677213"}, {"name": "성산읍", "address": "제주특별자치도 서귀포시 성산읍 난산리 1108", "lat": "33.4008005977979", "lng": "126.871484117526"}, {"name": "성산읍", "address": "제주특별자치도 서귀포시 성산읍 난산리 1122", "lat": "33.398547874138", "lng": "126.870846571228"}, {"name": "성산읍", "address": "제주특별자치도 서귀포시 성산읍 난산리 1029-4", "lat": "33.3996376173196", "lng": "126.868403051511"}, {"name": "성산읍", "address": "제주특별자치도 서귀포시 성산읍 고성리 1040-1", "lat": "33.4446861882903", "lng": "126.911375060164"}, {"name": "성산읍", "address": "제주특별자치도 서귀포시 성산읍 삼달리 453-2", "lat": "33.3723592832919", "lng": "126.850411565007"}, {"name": "성산읍", "address": "제주특별자치도 서귀포시 성산읍 오조리 870", "lat": "33.4586602306177", "lng": "126.914025669491"}, {"name": "성산읍", "address": "제주특별자치도 서귀포시 성산읍 오조리 90-23", "lat": "33.4603568227971", "lng": "126.916984251365"}, {"name": "성산읍", "address": "제주특별자치도 서귀포시 성산읍 오조리 709", "lat": "33.4629538258412", "lng": "126.914735700492"}, {"name": "성산읍", "address": "제주특별자치도 서귀포시 성산읍 오조리 1252-1 앞", "lat": "33.4638344815983", "lng": "126.908122617993"}, {"name": "성산읍", "address": "제주특별자치도 서귀포시 성산읍 동류암로36번길 5 (서귀포시 성산읍 고성리 298-1)", "lat": "33.449668511981", "lng": "126.916198318968"}, {"name": "성산읍", "address": "제주특별자치도 서귀포시 성산읍 고성리 1144-1", "lat": "33.4515841729341", "lng": "126.909908716255"}, {"name": "성산읍", "address": "제주특별자치도 서귀포시 성산읍 시흥리 12-72", "lat": "33.4758160291713", "lng": "126.908222724739"}, {"name": "성산읍", "address": "제주특별자치도 서귀포시 성산읍 성산리 347-15", "lat": "33.4706753666398", "lng": "126.930605472911"}, {"name": "성산읍", "address": "제주특별자치도 서귀포시 성산읍 오조리 3-9", "lat": "33.4700779195021", "lng": "126.922761038337"}, {"name": "성산읍", "address": "제주특별자치도 서귀포시 성산읍 성산리 234-29", "lat": "33.4646878057735", "lng": "126.932278483783"}, {"name": "성산읍", "address": "제주특별자치도 서귀포시 성산읍 수산리 2433-1", "lat": "33.4419430157", "lng": "126.862827766456"}, {"name": "성산읍", "address": "제주특별자치도 서귀포시 성산읍 고성리 915-2", "lat": "33.4419639937416", "lng": "126.910556293794"}, {"name": "성산읍", "address": "제주특별자치도 서귀포시 성산읍 성산등용로 112-7 (서귀포시 성산읍 성산리 347-9)", "lat": "33.4719126653253", "lng": "126.933104794189"}, {"name": "성산읍", "address": "제주특별자치도 서귀포시 성산읍 오조리 1065-27", "lat": "33.4542143383513", "lng": "126.906600251606"}, {"name": "성산읍", "address": "제주특별자치도 서귀포시 성산읍 고성리 1187-2", "lat": "33.4522741765869", "lng": "126.913454065186"}, {"name": "성산읍", "address": "제주특별자치도 서귀포시 성산읍 고성리 302-4", "lat": "33.4508574731638", "lng": "126.91634130016"}, {"name": "성산읍", "address": "제주특별자치도 서귀포시 성산읍 고성리 224-16", "lat": "33.4375637964198", "lng": "126.922099025694"}, {"name": "성산읍", "address": "제주특별자치도 서귀포시 성산읍 고성리 588-7", "lat": "33.4343079076631", "lng": "126.91591306252"}, {"name": "성산읍", "address": "제주특별자치도 서귀포시 성산읍 신산리 582-2 건너편", "lat": "33.3835367132936", "lng": "126.88187956382"}, {"name": "성산읍", "address": "제주특별자치도 서귀포시 성산읍 고성리 1152-8", "lat": "33.4523910698115", "lng": "126.911347433083"}, {"name": "성산읍", "address": "제주특별자치도 서귀포시 성산읍 오조리 9-4", "lat": "33.469194455303", "lng": "126.920795504367"}, {"name": "성산읍", "address": "제주특별자치도 서귀포시 성산읍 시흥리 980-27", "lat": "33.4757035149556", "lng": "126.898736627278"}, {"name": "성산읍", "address": "제주특별자치도 서귀포시 성산읍 고성리 2470-2", "lat": "33.4451820656147", "lng": "126.896467766665"}, {"name": "성산읍", "address": "제주특별자치도 서귀포시 성산읍 신풍리 149-3", "lat": "33.3619448196124", "lng": "126.861120491277"}, {"name": "안덕면", "address": "제주특별자치도 서귀포시 안덕면 화순리 776-8", "lat": "33.2396158073822", "lng": "126.335648464354"}, {"name": "안덕면", "address": "제주특별자치도 서귀포시 안덕면 사계리 2294-28", "lat": "33.2268777794982", "lng": "126.30016879263"}, {"name": "안덕면", "address": "제주특별자치도 서귀포시 안덕면 화순리 2107", "lat": "33.2531992351841", "lng": "126.327834924386"}, {"name": "안덕면", "address": "제주특별자치도 서귀포시 안덕면 화순로 109(서귀포시 안덕면 화순리 1069-5)", "lat": "33.2463123162965", "lng": "126.334639493953"}, {"name": "안덕면", "address": "제주특별자치도 서귀포시 안덕면 화순리 363-3", "lat": "33.2436243612088", "lng": "126.336097228811"}, {"name": "안덕면", "address": "제주특별자치도 서귀포시 안덕면 화순해안로 69(서귀포시 안덕면 화순리 833-2)", "lat": "33.2408567045633", "lng": "126.33394585598"}, {"name": "안덕면", "address": "제주특별자치도 서귀포시 안덕면 화순리 1999", "lat": "33.251675343534", "lng": "126.32723815475"}, {"name": "안덕면", "address": "제주특별자치도 서귀포시 안덕면 화순해안로 125(서귀포시 안덕면 화순리 763-4)", "lat": "33.2403022938678", "lng": "126.33769312997"}, {"name": "안덕면", "address": "제주특별자치도 서귀포시 안덕면 사계남로 216번길 24 (서귀포시 안덕면 사계리 116-4)", "lat": 0, "lng": 0}, {"name": "안덕면", "address": "제주특별자치도 서귀포시 안덕면 형제해안로 13(서귀포시 안덕면 사계리 2147-32)", "lat": "33.2280646675148", "lng": "126.305397133786"}, {"name": "안덕면", "address": "제주특별자치도 서귀포시 안덕면 동광본동로 35 (서귀포시 안덕면 동광리 958-1)", "lat": "33.3085031376699", "lng": "126.335555177771"}, {"name": "안덕면", "address": "제주특별자치도 서귀포시 안덕면 동광리 1590", "lat": "33.3049581142867", "lng": "126.338124988957"}, {"name": "안덕면", "address": "제주특별자치도 서귀포시 신화역사로 578-6 (서귀포시 안덕면 동광리 491-1)", "lat": "33.3099947197307", "lng": "126.349313481717"}, {"name": "안덕면", "address": "제주특별자치도 서귀포시 안덕면 신화역사로 688 (서귀포시 안덕면 동광리 5-157)", "lat": "33.3134275158319", "lng": "126.359588574341"}, {"name": "안덕면", "address": "제주특별자치도 서귀포시 안덕면 서광리 366-9", "lat": "33.2894427897268", "lng": "126.325501762196"}, {"name": "안덕면", "address": "제주특별자치도 서귀포시 안덕면 서광리 324-3", "lat": "33.2877227636698", "lng": "126.329329435606"}, {"name": "안덕면", "address": "제주특별자치도 서귀포시 안덕면 서광리 315-2", "lat": "33.2872916092073", "lng": "126.326860208749"}, {"name": "안덕면", "address": "제주특별자치도 서귀포시 안덕면 병악로 421 (서귀포시 안덕면 상천리 470-2)", "lat": "33.3075189433027", "lng": "126.381649935249"}, {"name": "안덕면", "address": "제주특별자치도 서귀포시 안덕면 대평감산로 43 (서귀포시 안덕면 창천리 930-4)", "lat": "33.2383350308652", "lng": "126.365889938549"}, {"name": "안덕면", "address": "제주특별자치도 서귀포시 안덕면 창천중앙로 24번길 14 (서귀포시 안덕면 창천리 160)", "lat": "33.2645493144987", "lng": "126.370289542058"}, {"name": "안덕면", "address": "제주특별자치도 서귀포시 안덕면 창천중앙로 55 (서귀포시 안덕면 창천리 106-4)", "lat": "33.2673617938579", "lng": "126.369199944697"}, {"name": "안덕면", "address": "제주특별자치도 서귀포시 안덕면 창천리 263-1", "lat": "33.264563542472", "lng": "126.365126714165"}, {"name": "안덕면", "address": "제주특별자치도 서귀포시 안덕면 창천리 380-1", "lat": "33.262712970608", "lng": "126.366487100541"}, {"name": "안덕면", "address": "제주특별자치도 서귀포시 안덕면 화순서로 15 (서귀포시 안덕면 화순리 1202-1)", "lat": 0, "lng": 0}, {"name": "안덕면", "address": "제주특별자치도 서귀포시 안덕면 서광리 2051-2", "lat": "33.282869274427", "lng": "126.297973381743"}, {"name": "안덕면", "address": "제주특별자치도 서귀포시 안덕면 서광리 1803-3", "lat": "33.2884019567359", "lng": "126.304654844589"}, {"name": "안덕면", "address": "제주특별자치도 서귀포시 안덕면 서광리 1856-2", "lat": "33.2883596555251", "lng": "126.302961904062"}, {"name": "안덕면", "address": "제주특별자치도 서귀포시 안덕면 서광리 2071-2", "lat": "33.284717934082", "lng": "126.301125463607"}, {"name": "안덕면", "address": "제주특별자치도 서귀포시 안덕면 상창리 650-6", "lat": "33.2720129528424", "lng": "126.36549548632"}, {"name": "안덕면", "address": "제주특별자치도 서귀포시 안덕면 상창리 621", "lat": "33.2739751781713", "lng": "126.362735859635"}, {"name": "안덕면", "address": "제주특별자치도 서귀포시 안덕면 상창리 594-16", "lat": "33.2735441885608", "lng": "126.364529019907"}, {"name": "안덕면", "address": "제주특별자치도 서귀포시 안덕면 덕수리 792-3", "lat": "33.2543100032038", "lng": "126.311254765013"}, {"name": "안덕면", "address": "제주특별자치도 서귀포시 안덕면 덕수리 1474", "lat": "33.2782454958172", "lng": "126.313918036202"}, {"name": "안덕면", "address": "제주특별자치도 서귀포시 안덕면 대평감산로 4 (서귀포시 안덕면 창천리 777-11)", "lat": "33.2351984319461", "lng": "126.367138778694"}, {"name": "안덕면", "address": "제주특별자치도 서귀포시 안덕면 상창리 2449-4", "lat": "33.264653204304", "lng": "126.346685503429"}, {"name": "안덕면", "address": "제주특별자치도 서귀포시 안덕면 감산리 1508-1", "lat": "33.2573722132581", "lng": "126.349472700721"}, {"name": "안덕면", "address": "제주특별자치도 서귀포시 안덕면 서안골로 14 (서귀포시 안덕면 감산리 439-3)", "lat": "33.2558846026538", "lng": "126.351606923035"}, {"name": "안덕면", "address": "제주특별자치도 서귀포시 안덕면 화순서동로 389(서귀포시 안덕면 서광리 74-1)", "lat": "33.2854427754353", "lng": "126.331455863983"}, {"name": "안덕면", "address": "제주특별자치도 서귀포시 안덕면 서광리 212-6", "lat": "33.2852918231579", "lng": "126.327890656683"}, {"name": "안덕면", "address": "제주특별자치도 서귀포시 안덕면 창천리 771-2", "lat": "33.2356981238577", "lng": "126.368258923513"}, {"name": "안덕면", "address": "제주특별자치도 서귀포시 대정읍 구억리 419-1", "lat": "33.2817164131107", "lng": "126.299912345855"}, {"name": "안덕면", "address": "제주특별자치도 서귀포시 안덕면 감산리 107-1", "lat": "33.2585854290761", "lng": "126.35788593303"}, {"name": "안덕면", "address": "제주특별자치도 서귀포시 안덕면 사계리 1838-2", "lat": "33.2330265671547", "lng": "126.301473969709"}, {"name": "안덕면", "address": "제주특별자치도 서귀포시 안덕면 상창리 1560", "lat": "33.2616474953198", "lng": "126.35171674364"}, {"name": "안덕면", "address": "제주특별자치도 서귀포시 안덕면 사계리 3602", "lat": "33.2504596364739", "lng": "126.322791991571"}, {"name": "안덕면", "address": "제주특별자치도 서귀포시 안덕면 사계남로 12(서귀포시 안덕면 사계리 2449)", "lat": 0, "lng": 0}, {"name": "안덕면", "address": "제주특별자치도 서귀포시 안덕면 서광남로 82번길 49(서귀포시 안덕면 서광리 2165-5)", "lat": "33.2851656977238", "lng": "126.30247814052"}, {"name": "안덕면", "address": "제주특별자치도 서귀포시 안덕면 광평로 41(서귀포시 안덕면 광평리195-2)", "lat": "33.3295873320636", "lng": "126.381242652781"}, {"name": "안덕면", "address": "제주특별자치도 서귀포시 안덕면 화순리 1141-1", "lat": "33.2505873124527", "lng": "126.334551727672"}, {"name": "표선면", "address": "제주특별자치도 서귀포시 표선면 표선리 699-7", "lat": "33.3261288614698", "lng": "126.832102717535"}, {"name": "표선면", "address": "제주특별자치도 서귀포시 표선면 표선리 882-1", "lat": "33.3255424026692", "lng": "126.836671838106"}, {"name": "표선면", "address": "제주특별자치도 서귀포시 표선면 표선리 775", "lat": "33.3233389426018", "lng": "126.831163818427"}, {"name": "표선면", "address": "제주특별자치도 서귀포시 표선면 표선리 515-4", "lat": "33.328701439879", "lng": "126.832275754091"}, {"name": "표선면", "address": "제주특별자치도 서귀포시 표선면 성읍정의현로 22번길 8-2(서귀포시 표선면 성읍리 987-1)", "lat": "33.3841398904926", "lng": "126.801895330986"}, {"name": "표선면", "address": "제주특별자치도 서귀포시 표선면 표선리 2078", "lat": "33.3277523555558", "lng": "126.823595992798"}, {"name": "표선면", "address": "제주특별자치도 서귀포시 표선면 성읍리 2901", "lat": "33.4131735191359", "lng": "126.771936453025"}, {"name": "표선면", "address": "제주특별자치도 서귀포시 표선면 성읍리 2891", "lat": "33.4112418258252", "lng": "126.774212470804"}, {"name": "표선면", "address": "제주특별자치도 서귀포시 표선면 표선리 763-1", "lat": "33.3233086632648", "lng": "126.828999686826"}, {"name": "표선면", "address": "제주특별자치도 서귀포시 표선면 세화리 1080", "lat": "33.3308998116307", "lng": "126.798500021915"}, {"name": "표선면", "address": "제주특별자치도 서귀포시 표선면 세화리 2410-4", "lat": "33.3205954785278", "lng": "126.790438487235"}, {"name": "표선면", "address": "제주특별자치도 서귀포시 표선면 토산리 154-4", "lat": "33.3183773704924", "lng": "126.78947124888"}, {"name": "표선면", "address": "제주특별자치도 서귀포시 표선면 토산리 332-12", "lat": "33.3094356776951", "lng": "126.783043406192"}, {"name": "표선면", "address": "제주특별자치도 서귀포시 표선면 돈오름로 55(서귀포시 표선면 세화리 669-5)", "lat": "33.3330691001026", "lng": "126.804063727623"}, {"name": "표선면", "address": "제주특별자치도 서귀포시 표선면 토산리 521-1", "lat": "33.30952046864", "lng": "126.777104563922"}, {"name": "표선면", "address": "제주특별자치도 서귀포시 표선면 세화리 209-3", "lat": "33.3042339718523", "lng": "126.803175922686"}, {"name": "표선면", "address": "제주특별자치도 서귀포시 표선면 세화리 200-1", "lat": "33.3044209669984", "lng": "126.806156673838"}, {"name": "표선면", "address": "제주특별자치도 서귀포시 표선면 표선리 40-10", "lat": "33.3249550174145", "lng": "126.845068015626"}, {"name": "표선면", "address": "제주특별자치도 서귀포시 표선면 표선리 40-66", "lat": "33.3235074033824", "lng": "126.838238610492"}, {"name": "표선면", "address": "제주특별자치도 서귀포시 표선면 가시리 1311-1", "lat": "33.3572107593063", "lng": "126.77678023104"}, {"name": "표선면", "address": "제주특별자치도 서귀포시 표선면 성읍리 1009", "lat": "33.3843678077537", "lng": "126.796592282845"}, {"name": "표선면", "address": "제주특별자치도 서귀포시 표선면 성읍리 1468-1", "lat": "33.3892905509138", "lng": "126.796259776898"}, {"name": "표선면", "address": "제주특별자치도 서귀포시 표선면 토산리 168-2", "lat": "33.3210903275022", "lng": "126.789393093407"}, {"name": "표선면", "address": "제주특별자치도 서귀포시 표선면 토산리 1369-5", "lat": "33.3262386051994", "lng": "126.765909806423"}, {"name": "표선면", "address": "제주특별자치도 서귀포시 표선면 토산리 425-4", "lat": "33.3065450484579", "lng": "126.783558032836"}, {"name": "표선면", "address": "제주특별자치도 서귀포시 표선면 토산리 456-2", "lat": "33.3074033798682", "lng": "126.776567686375"}, {"name": "표선면", "address": "제주특별자치도 서귀포시 표선면 가시리 2105-2", "lat": "33.3489488092859", "lng": "126.773781245903"}, {"name": "표선면", "address": "제주특별자치도 서귀포시 표선면 가시리 2528-3", "lat": "33.3612228581477", "lng": "126.765370177331"}, {"name": "표선면", "address": "제주특별자치도 서귀포시 표선면 표선리 2919-2", "lat": "33.3079530788111", "lng": "126.812724688281"}, {"name": "표선면", "address": "제주특별자치도 서귀포시 표선면 가시리 2318-2", "lat": "33.3518541732654", "lng": "126.765599437154"}, {"name": "표선면", "address": "제주특별자치도 서귀포시 표선면 토산리 934-1", "lat": "33.3300359761233", "lng": "126.770348760741"}, {"name": "표선면", "address": "제주특별자치도 서귀포시 표선면 하천리 668-3", "lat": 0, "lng": 0}, {"name": "표선면", "address": "제주특별자치도 서귀포시 표선면 토산리 856-4", "lat": "33.3307601237181", "lng": "126.771550255922"}, {"name": "표선면", "address": "제주특별자치도 서귀포시 표선면 하천리 2176-1", "lat": "33.3532499746924", "lng": "126.810203794499"}, {"name": "표선면", "address": "제주특별자치도 서귀포시 표선면 가시리 2168-2", "lat": "33.3452284768183", "lng": "126.773406498497"}, {"name": "표선면", "address": "제주특별자치도 서귀포시 표선면 표선리 2074-2", "lat": "33.3283957668542", "lng": "126.822274475665"}, {"name": "표선면", "address": "제주특별자치도 서귀포시 표선면 표선리 959-1", "lat": "33.321816364145", "lng": "126.833907628414"}, {"name": "표선면", "address": "제주특별자치도 서귀포시 표선면 성읍리 468-5", "lat": "33.3977388089907", "lng": "126.804505618341"}, {"name": "표선면", "address": "제주특별자치도 서귀포시 표선면 표선리 464", "lat": "33.3290547733216", "lng": "126.835978640374"}, {"name": "표선면", "address": "제주특별자치도 서귀포시 표선면 표선중앙로 31(서귀포시 표선면 표선리 317-1)", "lat": "33.3293328526732", "lng": "126.832077669027"}, {"name": "표선면", "address": "제주특별자치도 서귀포시 표선면 민속해안로 292(서귀포시 표선면 표선리 1311-6)", "lat": "33.3076604936592", "lng": "126.829505604945"}, {"name": "표선면", "address": "제주특별자치도 서귀포시 표선면 토산리 537-3", "lat": "33.3088392770773", "lng": "126.779676992622"}, {"name": "표선면", "address": "제주특별자치도 서귀포시 표선면 남조로 1487-73(서귀포시 표선면 가시리 산158)", "lat": "33.4014287623403", "lng": "126.675670597493"}, {"name": "송산동", "address": "제주특별자치도 서귀포시 서귀동 633-6", "lat": "33.2434157703199", "lng": "126.562714837784"}, {"name": "송산동", "address": "제주특별자치도 서귀포시 서귀동 558-15", "lat": "33.2445783480223", "lng": "126.565626568472"}, {"name": "송산동", "address": "제주특별자치도 서귀포시 서귀동 44-3", "lat": "33.2434151862999", "lng": "126.567265531655"}, {"name": "송산동", "address": "제주특별자치도 서귀포시 보목동 562", "lat": "33.2394514506165", "lng": "126.606869641371"}, {"name": "송산동", "address": "제주특별자치도 서귀포시 보목동 420", "lat": "33.2426300270019", "lng": "126.604524020278"}, {"name": "송산동", "address": "제주특별자치도 서귀포시 보목동 1312-5", "lat": "33.2430306548991", "lng": "126.59834391048"}, {"name": "송산동", "address": "제주특별자치도 서귀포시 칠십리로 485번길 27(서귀포시 보목동 869)", "lat": "33.2439684301911", "lng": "126.601197896189"}, {"name": "송산동", "address": "제주특별자치도 서귀포시 서귀동 738-1", "lat": "33.2426828109132", "lng": "126.566184133837"}, {"name": "송산동", "address": "제주특별자치도 서귀포시 칠십리로 424(서귀포시 보목동 1231-2)", "lat": "33.2433839349988", "lng": "126.59659502287"}, {"name": "송산동", "address": "제주특별자치도 서귀포시 보목동 695-3", "lat": "33.2406905754079", "lng": "126.599692279165"}, {"name": "송산동", "address": "제주특별자치도 서귀포시 보목로 79-2(서귀포시 보목동 703-4)", "lat": "33.2400742262025", "lng": "126.601998516486"}, {"name": "정방동", "address": "제주특별자치도 서귀포시 서귀동 413-14", "lat": "33.2468049818868", "lng": "126.56517818361"}, {"name": "정방동", "address": "제주특별자치도 서귀포시 태평로 371번길 4(서귀포시 서귀동 443-1)", "lat": "33.2455517944975", "lng": "126.561017086382"}, {"name": "정방동", "address": "제주특별자치도 서귀포시 서귀동 172", "lat": "33.2468376130206", "lng": "126.567503191746"}, {"name": "정방동", "address": "제주특별자치도 서귀포시 서귀동 961-31", "lat": "33.24595553087", "lng": "126.569655847612"}, {"name": "정방동", "address": "제주특별자치도 서귀포시 서귀동 509", "lat": "33.2457220852067", "lng": "126.563519926281"}, {"name": "정방동", "address": "제주특별자치도 서귀포시 서귀동 127-3", "lat": "33.2463874116425", "lng": "126.568172943719"}, {"name": "정방동", "address": "제주특별자치도 서귀포시 서귀동 403-6", "lat": "33.2477903376734", "lng": "126.565812950116"}, {"name": "중앙동", "address": "제주특별자치도 서귀포시 서귀동 261-1", "lat": "33.2529462410174", "lng": "126.56584464935"}, {"name": "중앙동", "address": "제주특별자치도 서귀포시 서귀동 260-52", "lat": "33.2515597181708", "lng": "126.566285037279"}, {"name": "중앙동", "address": "제주특별자치도 서귀포시 중앙동 250-6", "lat": "33.2493897471539", "lng": "126.569497907576"}, {"name": "천지동", "address": "제주특별자치도 천지동 알레그리아 호텔", "lat": 0, "lng": 0}, {"name": "천지동", "address": "제주특별자치도 천지동 탐나마트 옆 (태영전자 맞은편)", "lat": 0, "lng": 0}, {"name": "천지동", "address": "제주특별자치도 천지동 골드슈퍼 앞", "lat": 0, "lng": 0}, {"name": "천지동", "address": "제주특별자치도 천지동 평생학습센터 뒤", "lat": 0, "lng": 0}, {"name": "천지동", "address": "제주특별자치도 천지동 한성전기 앞", "lat": 0, "lng": 0}, {"name": "천지동", "address": "제주특별자치도 천지동 어린이놀이터앞", "lat": 0, "lng": 0}, {"name": "효돈동", "address": "제주특별자치도 서귀포시 신효동 820-4", "lat": "33.263924421918", "lng": "126.61237518261"}, {"name": "효돈동", "address": "제주특별자치도 서귀포시 신효동 799-4", "lat": "33.2621229118174", "lng": "126.61117446928"}, {"name": "효돈동", "address": "제주특별자치도 서귀포시 신효동 690-11", "lat": "33.265965451617", "lng": "126.613884959599"}, {"name": "효돈동", "address": "제주특별자치도 서귀포시 하효동 11-2", "lat": "33.2663777711986", "lng": "126.620888989191"}, {"name": "효돈동", "address": "제주특별자치도 서귀포시 하효동 255", "lat": "33.2615601302196", "lng": "126.620814391999"}, {"name": "효돈동", "address": "제주특별자치도 서귀포시 하효동 545-3", "lat": "33.2585414126513", "lng": "126.622188340458"}, {"name": "효돈동", "address": "제주특별자치도 서귀포시 신효동 226-7", "lat": "33.2679845278054", "lng": "126.615940783518"}, {"name": "효돈동", "address": "제주특별자치도 서귀포시 하효동 407-2", "lat": "33.2600384447745", "lng": "126.623484122166"}, {"name": "효돈동", "address": "제주특별자치도 서귀포시 하효동 1304-4", "lat": "33.2496943803453", "lng": "126.61919078463"}, {"name": "효돈동", "address": "제주특별자치도 서귀포시 하효동 907-1", "lat": "33.2574298442269", "lng": "126.617516241282"}, {"name": "효돈동", "address": "제주특별자치도 서귀포시 하효동 625-2", "lat": "33.2595336359699", "lng": "126.617785031755"}, {"name": "효돈동", "address": "제주특별자치도 서귀포시 효돈로 169(서귀포시 하효동 137)", "lat": "33.2637958226198", "lng": "126.61687567165"}, {"name": "효돈동", "address": "제주특별자치도 서귀포시 효돈로 108(서귀포시 신효동 772)", "lat": "33.2634892216524", "lng": "126.61036122753"}, {"name": "영천동", "address": "제주특별자치도 서귀포시 토평동 1046-1", "lat": "33.2577227455559", "lng": "126.586054205146"}, {"name": "영천동", "address": "제주특별자치도 서귀포시 토평동 1615-10", "lat": "33.2742394468692", "lng": "126.59071995871"}, {"name": "영천동", "address": "제주특별자치도 서귀포시 토평동 2093", "lat": "33.2726311354032", "lng": "126.586473321884"}, {"name": "영천동", "address": "제주특별자치도 서귀포시 상효동 941-7", "lat": "33.2731621767043", "lng": "126.596872242791"}, {"name": "영천동", "address": "제주특별자치도 서귀포시 상효동 453-2", "lat": "33.2802742309271", "lng": "126.607812258818"}, {"name": "영천동", "address": "제주특별자치도 서귀포시 토평로 50번길 3(서귀포시 토평동 1353)", "lat": "33.2702042558036", "lng": "126.590159294971"}, {"name": "영천동", "address": "제주특별자치도 서귀포시 토평동 1541-1", "lat": "33.2733217490889", "lng": "126.589565006308"}, {"name": "영천동", "address": "제주특별자치도 서귀포시 토평로 19번길 68(서귀포시 토평동 2069)", "lat": 0, "lng": 0}, {"name": "영천동", "address": "제주특별자치도 서귀포시 상효동 1290-10", "lat": "33.2922533111917", "lng": "126.594541617777"}, {"name": "영천동", "address": "제주특별자치도 서귀포시 상효동 2269-2", "lat": "33.3024615726796", "lng": "126.574286737449"}, {"name": "영천동", "address": "제주특별자치도 서귀포시 토평동 3273-1", "lat": "33.292546754684", "lng": "126.581073557502"}, {"name": "영천동", "address": "제주특별자치도 서귀포시 상효동 653-2", "lat": "33.2742127405765", "lng": "126.59937836382"}, {"name": "영천동", "address": "제주특별자치도 서귀포시 토평로 172(서귀포시 토평동 1702-1)", "lat": "33.2815653092099", "lng": "126.588822235207"}, {"name": "영천동", "address": "제주특별자치도 서귀포시 돈내코로 120(서귀포시 상효동 1460)", "lat": "33.3001310613498", "lng": "126.584437045437"}, {"name": "영천동", "address": "제주특별자치도 서귀포시 상효동 1127-2", "lat": "33.3002928804844", "lng": "126.600795206455"}, {"name": "영천동", "address": "제주특별자치도 서귀포시 토평동 2333-9", "lat": "33.2624745573553", "lng": "126.582292223962"}, {"name": "영천동", "address": "제주특별자치도 서귀포시 토평동 2235-3", "lat": "33.2686357405933", "lng": "126.586985982584"}, {"name": "영천동", "address": "제주특별자치도 서귀포시 토평동 1400-3", "lat": "33.2716356041609", "lng": "126.592082373992"}, {"name": "영천동", "address": "제주특별자치도 서귀포시 토평동 2892", "lat": "33.2841150886995", "lng": "126.581039558689"}, {"name": "동홍동", "address": "제주특별자치도 서귀포시 동홍동 1687-1", "lat": "33.264931229408", "lng": "126.563370954471"}, {"name": "동홍동", "address": "제주특별자치도 서귀포시 동홍동 1144", "lat": "33.2659677579324", "lng": "126.566286817957"}, {"name": "동홍동", "address": "제주특별자치도 서귀포시 동홍로 162번길 31(서귀포시 동홍동 1214-6)", "lat": "33.2643906870792", "lng": "126.570276386578"}, {"name": "동홍동", "address": "제주특별자치도 서귀포시 동홍동 1242-5", "lat": "33.2621391759795", "lng": "126.566986058348"}, {"name": "동홍동", "address": "제주특별자치도 서귀포시 동홍동 1460-19", "lat": "33.2590119346488", "lng": "126.562059561822"}, {"name": "동홍동", "address": "제주특별자치도 서귀포시 동홍동 1504-3", "lat": "33.254320261291", "lng": "126.563713913125"}, {"name": "동홍동", "address": "제주특별자치도 서귀포시 동홍동 529-8", "lat": "33.2563130191064", "lng": "126.566336351885"}, {"name": "동홍동", "address": "제주특별자치도 서귀포시 동홍중앙로 7번길 19(서귀포시 동홍동 426-1)", "lat": "33.2512952220105", "lng": "126.570323217299"}, {"name": "동홍동", "address": "제주특별자치도 서귀포시 태평로 537번길 40(서귀포시 동홍동 646-1)", "lat": 0, "lng": 0}, {"name": "동홍동", "address": "제주특별자치도 서귀포시 동홍동 151", "lat": "33.2526565731582", "lng": "126.574170633311"}, {"name": "동홍동", "address": "제주특별자치도 서귀포시 태평로 550(서귀포시 동홍동 190-2)", "lat": "33.2524994323577", "lng": "126.576259881018"}, {"name": "동홍동", "address": "제주특별자치도 서귀포시 동홍동 577-7", "lat": "33.2577704193556", "lng": "126.569269646705"}, {"name": "동홍동", "address": "제주특별자치도 서귀포시 동홍동 651", "lat": "33.2590793739781", "lng": "126.57441936286"}, {"name": "동홍동", "address": "제주특별자치도 서귀포시 동홍북로 75(서귀포시 동홍동 663)", "lat": "33.2588587407064", "lng": "126.576372023501"}, {"name": "동홍동", "address": "제주특별자치도 서귀포시 동홍중앙로 56(서귀포시 동홍동 470-1)", "lat": "33.2554484202979", "lng": "126.572264276952"}, {"name": "동홍동", "address": "제주특별자치도 서귀포시 태평로 536번길 27(서귀포시 동홍동 205-2)", "lat": "33.2509705342304", "lng": "126.576126685243"}, {"name": "동홍동", "address": "제주특별자치도 서귀포시 토평동 3265-8", "lat": "33.2576856981001", "lng": "126.578461464898"}, {"name": "동홍동", "address": "제주특별자치도 서귀포시 동홍동 420-1", "lat": "33.2563500564116", "lng": "126.575634638411"}, {"name": "동홍동", "address": "제주특별자치도 서귀포시 동홍동 1385-6", "lat": "33.260850501787", "lng": "126.562229077273"}, {"name": "동홍동", "address": "제주특별자치도 서귀포시 일주동로 8547(서귀포시 동홍동 130)", "lat": "33.2541901192398", "lng": "126.57545202384"}, {"name": "동홍동", "address": "제주특별자치도 서귀포시 동홍동 385-2", "lat": "33.2495865913926", "lng": "126.570781411422"}, {"name": "동홍동", "address": "제주특별자치도 서귀포시 동홍동 927", "lat": "33.2744426279632", "lng": "126.568443733447"}, {"name": "동홍동", "address": "제주특별자치도 서귀포시 동홍동 808-5", "lat": 0, "lng": 0}, {"name": "서홍동", "address": "제주특별자치도 서귀포시 현청로 23-4(서귀포시 서홍동 1966-1)", "lat": "33.2649903910381", "lng": "126.553373446902"}, {"name": "서홍동", "address": "제주특별자치도 서귀포시 서홍동 228-1", "lat": "33.2650313732375", "lng": "126.558461141942"}, {"name": "서홍동", "address": "제주특별자치도 서귀포시 홍중로 92(서귀포시 서홍동 299-1)", "lat": "33.2607107231784", "lng": "126.555865323911"}, {"name": "서홍동", "address": "제주특별자치도 서귀포시 서홍동 305-5", "lat": "33.2605989510843", "lng": "126.558227589716"}, {"name": "서홍동", "address": "제주특별자치도 서귀포시 홍중동로 6번길 18(서귀포시 서홍동 382-1)", "lat": "33.2575806983388", "lng": "126.558238703118"}, {"name": "서홍동", "address": "제주특별자치도 서귀포시 중앙로 101번길 52(서귀포시 서홍동 447-3)", "lat": "33.2534812704393", "lng": "126.555357293521"}, {"name": "서홍동", "address": "제주특별자치도 서귀포시 중앙로 105(서귀포시 서홍동 440-1)", "lat": "33.2539547145487", "lng": "126.559588270998"}, {"name": "서홍동", "address": "제주특별자치도 서귀포시 중앙로 125(서귀포시 서홍동 397-24)", "lat": "33.2560780119073", "lng": "126.559984557634"}, {"name": "서홍동", "address": "제주특별자치도 서귀포시 서홍동 345-14", "lat": "33.2587623616772", "lng": "126.555654321691"}, {"name": "서홍동", "address": "제주특별자치도 서귀포시 현청로 54(서귀포시 서홍동 216-3)", "lat": "33.2655296619848", "lng": "126.556145206093"}, {"name": "대륜동", "address": "제주특별자치도 서귀포시 강정동 475-2", "lat": "33.2364669005265", "lng": "126.507130255462"}, {"name": "대륜동", "address": "제주특별자치도 서귀포시 법환동 451-2", "lat": "33.2406438394966", "lng": "126.516771726039"}, {"name": "대륜동", "address": "제주특별자치도 서귀포시 속골로 59(서귀포시 호근동 1528)", "lat": "33.2452360046805", "lng": "126.530254247087"}, {"name": "대륜동", "address": "제주특별자치도 서귀포시 태평로 92번길 49(서귀포시 호근동 1619)", "lat": "33.2401695155881", "lng": "126.531842818277"}, {"name": "대륜동", "address": "제주특별자치도 서귀포시 법환동 734-1", "lat": "33.2540556117157", "lng": "126.511454303779"}, {"name": "대륜동", "address": "제주특별자치도 서귀포시 법환동 737", "lat": "33.2539828048883", "lng": "126.509541544127"}, {"name": "대륜동", "address": "제주특별자치도 서귀포시 서호남로 11(서귀포시 서호동 1528)", "lat": "33.2513246453388", "lng": "126.513816995463"}, {"name": "대륜동", "address": "제주특별자치도 서귀포시 서호동 1453", "lat": "33.2572860175399", "lng": "126.511583670105"}, {"name": "대륜동", "address": "제주특별자치도 서귀포시 신북로 24번길 12(서귀포시 서호동 1150)", "lat": "33.2593070178082", "lng": "126.512595924182"}, {"name": "대륜동", "address": "제주특별자치도 서귀포시 신월동로 29(서귀포시 강정동 101-3)", "lat": "33.2634169196075", "lng": "126.508113361234"}, {"name": "대륜동", "address": "제주특별자치도 서귀포시 호근북로 56(서귀포시 호근동 1141-5)", "lat": "33.2617784405488", "lng": "126.530324451679"}, {"name": "대륜동", "address": "제주특별자치도 서귀포시 법환동 284-1", "lat": "33.2375193816313", "lng": "126.515509454228"}, {"name": "대륜동", "address": "제주특별자치도 서귀포시 서호동 794-4", "lat": "33.2572726766796", "lng": "126.521252739543"}, {"name": "대륜동", "address": "제주특별자치도 서귀포시 호근동 1786-2", "lat": "33.2574837445993", "lng": "126.526882282559"}, {"name": "대륜동", "address": "제주특별자치도 서귀포시 호근동 2142-5", "lat": "33.2570659780416", "lng": "126.531945890783"}, {"name": "대륜동", "address": "제주특별자치도 서귀포시 서호동 1609", "lat": "33.2493023093151", "lng": "126.516271781428"}, {"name": "대륜동", "address": "제주특별자치도 서귀포시 서호중앙로 63(서귀포시 서호동 1530)", "lat": "33.2536692363329", "lng": "126.518614379686"}, {"name": "대륜동", "address": "제주특별자치도 서귀포시 호근동 1770", "lat": "33.2559120456373", "lng": "126.526602720842"}, {"name": "대륜동", "address": "제주특별자치도 서귀포시 월드컵로 59(서귀포시 법환동 1641)", "lat": 0, "lng": 0}, {"name": "대륜동", "address": "제주특별자치도 서귀포시 서호동 618-6", "lat": "33.2596081562862", "lng": "126.522799672272"}, {"name": "대륜동", "address": "제주특별자치도 서귀포시 이어도로 943(서귀포시 법환동 398)", "lat": "33.2392162627084", "lng": "126.514056985794"}, {"name": "대륜동", "address": "제주특별자치도 서귀포시 호근동 1883-1", "lat": "33.2603391028039", "lng": "126.527260326823"}, {"name": "대륜동", "address": "제주특별자치도 서귀포시 호근동 816", "lat": "33.2622538800801", "lng": "126.537325888996"}, {"name": "대륜동", "address": "제주특별자치도 서귀포시 서호동 271-1", "lat": "33.251434367262", "lng": "126.52430705269"}, {"name": "대륜동", "address": "제주특별자치도 서귀포시 태평로 60(서귀포시 호근동 1567-2)", "lat": "33.2444542127951", "lng": "126.529732225622"}, {"name": "대륜동", "address": "제주특별자치도 서귀포시 호근동 1838-7", "lat": "33.2568691772385", "lng": "126.524254314359"}, {"name": "대천동", "address": "제주특별자치도 서귀포시 말질로 161번길 3(서귀포시 강정동 2929-2)", "lat": "33.2374105418074", "lng": "126.480281360228"}, {"name": "대천동", "address": "제주특별자치도 서귀포시 강정동 4586-1", "lat": "33.2343617452599", "lng": "126.475440637625"}, {"name": "대천동", "address": "제주특별자치도 서귀포시 염돈로 20(서귀포시 강정동 2095)", "lat": 0, "lng": 0}, {"name": "대천동", "address": "제주특별자치도 서귀포시 염돈로 123(서귀포시 강정동 1926-1)", "lat": "33.2596267189315", "lng": "126.491870272496"}, {"name": "대천동", "address": "제주특별자치도 서귀포시 월평로 41(서귀포시 월평동 419)", "lat": "33.2461211859365", "lng": "126.460781129474"}, {"name": "대천동", "address": "제주특별자치도 서귀포시 월평동 751-8", "lat": "33.2449100440579", "lng": "126.458915306641"}, {"name": "대천동", "address": "제주특별자치도 서귀포시 월평동 513-1", "lat": "33.2433871858277", "lng": "126.459119651793"}, {"name": "대천동", "address": "제주특별자치도 서귀포시 도순남로 55(서귀포시 도순동 315-1)", "lat": "33.2492981583398", "lng": "126.475947722276"}, {"name": "대천동", "address": "제주특별자치도 서귀포시 도순남로 29(서귀포시 도순동 279-6)", "lat": "33.2505241726208", "lng": "126.474128296025"}, {"name": "대천동", "address": "제주특별자치도 서귀포시 도순동 906", "lat": "33.252892616934", "lng": "126.473395556259"}, {"name": "대천동", "address": "제주특별자치도 서귀포시 도순동 787-4", "lat": "33.2529992753251", "lng": "126.470464470302"}, {"name": "대천동", "address": "제주특별자치도 서귀포시 강정동 174-1", "lat": "33.2524613305096", "lng": "126.508222720654"}, {"name": "대천동", "address": "제주특별자치도 서귀포시 신서로 114번길 30(서귀포시 강정동 129-7)", "lat": "33.2587384391038", "lng": "126.508492336834"}, {"name": "대천동", "address": "제주특별자치도 서귀포시 강정동 138", "lat": "33.2577242181249", "lng": "126.508200533696"}, {"name": "대천동", "address": "제주특별자치도 서귀포시 강정동 123", "lat": "33.2597535347542", "lng": "126.508800346904"}, {"name": "대천동", "address": "제주특별자치도 서귀포시 도순동 888-1", "lat": "33.2524081962161", "lng": "126.473954758035"}, {"name": "대천동", "address": "제주특별자치도 서귀포시 강정동 146", "lat": "33.2563162994942", "lng": "126.50566912985"}, {"name": "대천동", "address": "제주특별자치도 서귀포시 강정동 4040-13", "lat": "33.2518954521605", "lng": "126.481384727365"}, {"name": "대천동", "address": "제주특별자치도 서귀포시 강정동 4692", "lat": "33.2293538139117", "lng": "126.476420947456"}, {"name": "중문동", "address": "제주특별자치도 서귀포시 중문동 1454", "lat": "33.2573380689732", "lng": "126.425105856484"}, {"name": "중문동", "address": "제주특별자치도 서귀포시 중문로 81번길 38(서귀포시 중문동 1543-1)", "lat": 0, "lng": 0}, {"name": "중문동", "address": "제주특별자치도 서귀포시 중문로 41번길 3(서귀포시 중문동 1551-1)", "lat": "33.2551529869713", "lng": "126.424579094073"}, {"name": "중문동", "address": "제주특별자치도 서귀포시 중문동 1684-2", "lat": "33.2547676484013", "lng": "126.426905691809"}, {"name": "중문동", "address": "제주특별자치도 서귀포시 천제연로 213번길 33(서귀포시 중문동 1675-9)", "lat": "33.25406789028", "lng": "126.428196393095"}, {"name": "중문동", "address": "제주특별자치도 서귀포시 중문동 2116-4", "lat": "33.2514965112202", "lng": "126.422975294502"}, {"name": "중문동", "address": "제주특별자치도 서귀포시 천제연로 208번길 16(서귀포시 중문동 2036)", "lat": "33.2503230111826", "lng": "126.426494960055"}, {"name": "중문동", "address": "제주특별자치도 서귀포시 중문관광로 335(서귀포시 중문동 2439-1)", "lat": "33.250115682687", "lng": "126.430546619527"}, {"name": "중문동", "address": "제주특별자치도 서귀포시 대포동 778", "lat": "33.2467850818534", "lng": "126.432656443596"}, {"name": "중문동", "address": "제주특별자치도 서귀포시 대포동 1598-4", "lat": "33.2429057551269", "lng": "126.432004453383"}, {"name": "중문동", "address": "제주특별자치도 서귀포시 대포동 1908-3", "lat": "33.2397683340735", "lng": "126.431758974656"}, {"name": "중문동", "address": "제주특별자치도 서귀포시 대포복개로 42(서귀포시 대포동 2026-1)", "lat": "33.242289016603", "lng": "126.434650214719"}, {"name": "중문동", "address": "제주특별자치도 서귀포시 회수동 799-4", "lat": "33.2627801937144", "lng": "126.44046971041"}, {"name": "중문동", "address": "제주특별자치도 서귀포시 회수동 355-1", "lat": "33.2631968090168", "lng": "126.447217145083"}, {"name": "중문동", "address": "제주특별자치도 서귀포시 하원동 1202-1", "lat": "33.2588635183647", "lng": "126.455410151935"}, {"name": "중문동", "address": "제주특별자치도 서귀포시 하원동 1276", "lat": "33.2574021205773", "lng": "126.457668780926"}, {"name": "중문동", "address": "제주특별자치도 서귀포시 법화로 9(서귀포시 하원동 406-5)", "lat": "33.2550249432956", "lng": "126.459086481699"}, {"name": "중문동", "address": "제주특별자치도 서귀포시 하원동 493", "lat": "33.2573913717796", "lng": "126.460005442571"}, {"name": "중문동", "address": "제주특별자치도 서귀포시 대포복개로 95(서귀포시 대포동 829)", "lat": "33.2473629182002", "lng": "126.43389990147"}, {"name": "중문동", "address": "제주특별자치도 서귀포시 일주서로 664(서귀포시 회수동 659-1)", "lat": "33.254891240198", "lng": "126.439502136175"}, {"name": "중문동", "address": "제주특별자치도 서귀포시 1100로 49번길 28(서귀포시 중문동 1767-3)", "lat": 0, "lng": 0}, {"name": "중문동", "address": "제주특별자치도 서귀포시 중문동 2334-2", "lat": "33.2489027933233", "lng": "126.42390433031"}, {"name": "중문동", "address": "제주특별자치도 서귀포시 회수동 656-5", "lat": "33.2545200683275", "lng": "126.438548566093"}, {"name": "중문동", "address": "제주특별자치도 서귀포시 하원동 1710-1", "lat": "33.2432864357329", "lng": "126.453377419343"}, {"name": "예래동", "address": "제주특별자치도 서귀포시 존재로 12(서귀포시 상예동 4625-4)", "lat": 0, "lng": 0}, {"name": "예래동", "address": "제주특별자치도 서귀포시 상예동 1718-15", "lat": "33.2644704732542", "lng": "126.39166941968"}, {"name": "예래동", "address": "제주특별자치도 서귀포시 상예동 1442-5", "lat": "33.250132762951", "lng": "126.394222565237"}, {"name": "예래동", "address": "제주특별자치도 서귀포시 하예동 1744-2", "lat": "33.2333186114506", "lng": "126.37402871465"}, {"name": "예래동", "address": "제주특별자치도 서귀포시 상예동 4563-1", "lat": "33.2714288776238", "lng": "126.374299594319"}, {"name": "예래동", "address": "제주특별자치도 서귀포시 상예로 70(서귀포시 상예동 1364-1)", "lat": "33.2524855136192", "lng": "126.39054471023"}, {"name": "예래동", "address": "제주특별자치도 서귀포시 예래로144번길 42(서귀포시 상예동 1279)", "lat": "33.248750087894", "lng": "126.390413223056"}, {"name": "예래동", "address": "제주특별자치도 서귀포시 하예동 266", "lat": "33.2452668222797", "lng": "126.388092773484"}, {"name": "예래동", "address": "제주특별자치도 서귀포시 상예동 531-5", "lat": "33.2535123241763", "lng": "126.398554354013"}, {"name": "예래동", "address": "제주특별자치도 서귀포시 상예동 3172-1", "lat": "33.24695520874", "lng": "126.387985186598"}, {"name": "예래동", "address": "제주특별자치도 서귀포시 예래로 416(서귀포시 하예동 1559-1)", "lat": "33.2366494745997", "lng": "126.373080567922"}, {"name": "예래동", "address": "제주특별자치도 서귀포시 하예동 1831-3", "lat": "33.2351027275019", "lng": "126.370364016475"}, {"name": "예래동", "address": "제주특별자치도 서귀포시 예래로 253(서귀포시 하예동 299-1)", "lat": "33.243206413538", "lng": "126.386952600231"}]